restaurant_name,latitude,longitude,avg_price,ratings
Melita Original,50.9050631,3.5288347,22.785714285714285,4.4
Cannur Pizza Pasta Pitta BBQ,51.0058452,3.8886878,20.844,4.3
Anatolia Hoogstraten,51.3960999,4.75359,19.166666666666668,4.1
Flamingo Pizza & Kebap,51.3557804,4.8650923,17.35,3.6
Qubbe Lounge,50.9796424,5.4915451,16.0,4.8
Keyf Lounge,51.1401444,5.5835198,15.777777777777779,4.9
La Rosa,51.1393449,4.6095,15.75,3.9
Milo Kebap Pizza Pasta,51.1895375,5.0757013,15.645833333333334,3.8
Herentals Kebab,51.1745451,4.838171,15.568965517241379,4.4
Pizzalicious,51.017464,3.9579873,15.5,3.9
Populair,50.861949,5.6249084,15.444444444444445,4.1
My Kebab,50.9872387,5.40882,15.391304347826088,3.2
Pitta Sena,51.037505,3.714077,15.333333333333334,3.3
Huzur Pizzeria Kebab,51.1311405,5.4560267,15.11111111111111,4.3
DailySlice,51.2110818,3.2424745,15.0,4.4
Eethuis Orient,51.0388933,5.2991728,15.0,4.2
Pasa,51.0332193,5.2812994,15.0,4.0
Pitta Melita,50.9226945,3.4458184,15.0,3.9
Pitta Melita,50.9460015,3.8041969,15.0,2.6
Pitawan,51.0243125,4.4775937,14.9,3.9
The Pizza Masters,51.0367741,3.7416992,14.9,4.1
Eethuis Kodak,51.2259261,5.4302185,14.714285714285714,4.0
Pita Vogelmarkt,51.213503,4.4094513,14.7,0.0
Baskent Nijlen,51.1652144,4.6819769,14.65,3.7
Istanbul,51.1672968,5.1734859,14.65,4.8
Orient Overpelt,51.2119421,5.4230823,14.5,4.2
Kebap Oasis,51.0973895,4.9451813,14.375,4.1
Pitta Istanbul,50.97435,3.014752,14.333333333333334,3.9
Pizzeria Vosselaar,51.3148154,4.8895358,14.3,3.0
Pizza Marmaris,51.2469449,4.4435028,14.277777777777779,4.1
Nur Kebab,50.8861168,5.5289695,14.25,4.3
Side Kebap,51.3187134,5.0863443,14.25,3.7
Efes Mol,51.1873243,5.1196074,14.15,4.2
Cheff Kebab,51.1410312,4.8398966,14.142857142857142,3.9
Frituur 't Patatje,51.216785,2.9356925,14.0,4.3
Leo's Bakkerij & Kebab,51.117792,5.2601209,14.0,4.5
Mc Buffet,50.8875816,3.4306791,14.0,3.6
Mr. Spareribs,50.930466,5.343357,14.0,4.8
SaBa Snack,51.2062849,3.2180116,14.0,3.7
Forty Seven,50.9325605,5.4049223,13.916666666666666,3.8
Pizzeria Valentino,51.1246762,4.495271,13.916666666666666,3.9
Milas,51.1615201,5.3969554,13.875,4.9
Efes,51.3109921,4.8870504,13.857142857142858,3.3
Kebabstore,50.929356,5.4626102,13.833333333333334,4.6
Pittaverne,51.4644444,4.4725981,13.833333333333334,4.2
Adel Eethuis,51.3787817,4.4745592,13.8,3.1
De Echte Eethuis Carlos,51.0023083,4.8359204,13.777777777777779,5.0
Napoli Schoten,51.2548016,4.5036859,13.71875,4.4
Pitta Marmaris,50.7699036,3.8745797,13.703703703703704,3.7
HKebab Pizza,50.8055699,4.1549889,13.666666666666666,4.2
Midyat,51.0006958,4.8298804,13.666666666666666,4.4
Nazar Pizza Kebap,51.0555709,4.6305208,13.666666666666666,3.9
Grill Metin,50.8066648,4.9394094,13.616666666666667,3.7
Alo Pizza,51.3342494,4.9634086,13.6,3.6
Antalya Pita,51.0217628,4.1140786,13.6,3.9
't Hoekske,51.2421,4.9658074,13.583333333333334,4.7
Pitta de Kroon,50.949387,4.04096,13.583333333333334,4.9
Dunya Kebab,51.11452,4.866375,13.55,3.8
'T Food Dilemma,51.2976457,3.0830791,13.5,4.2
Kebab House,51.1021044,2.5882683,13.5,4.6
Orient,50.9249881,5.3259603,13.5,3.8
Pitaverne Wilrijk,51.1717341,4.3877893,13.5,3.7
Pitta Araz,50.8698006,3.6220167,13.5,4.3
Pitta Dorp,50.870853,4.0181446,13.5,4.8
Pitza Service Beveren,51.2112126,4.252266,13.5,3.5
Pizza Royal,50.8917936,3.427323,13.5,3.8
Saray Pizza & Kebab,51.1383619,4.9038049,13.5,3.3
Millenium Kebap,50.9835692,4.8312654,13.384615384615385,4.3
Eethuis Bidos,50.8904648,5.653412,13.357142857142858,4.2
Campus & Fratelli,51.2250618,4.4074559,13.307142857142855,4.4
Pizza L'Esta,51.1792768,4.3553309,13.275714285714287,4.9
Cesars,51.0567325,4.6288207,13.25,4.7
De Pizzabakker,50.90793,4.51349,13.25,4.4
Eatpoint,51.0297439,5.2592668,13.25,4.1
Pizza Sam,51.3394195,3.2383649,13.25,4.2
La Bella,51.22917,5.4319444,13.225,4.1
Het Paleis Eethuis,51.3200678,4.9751429,13.222222222222221,4.0
4 Seizoenen,51.293016,4.4945229,13.216666666666667,4.7
Eethuis Nazar,51.093322,5.0611908,13.214285714285714,4.0
Eethuis Hoekske,50.925994,5.3251184,13.2,4.1
Eethuis Tuba,51.1310196,4.3893394,13.2,4.3
Eethuis Yuksel,51.1615063,4.6694733,13.2,4.2
Eethuis Botan,51.0526079,4.7287392,13.18421052631579,3.9
Pizza Pita House,51.175496,4.8243417,13.175,3.5
Mashar Pide,50.977367,5.489949,13.166666666666666,3.6
Milano Pizza Grill,50.9768089,4.6335843,13.166666666666666,4.3
Oba Grillhuis,51.1162617,5.2620302,13.166666666666666,4.2
Papi's pizza,50.9712916,4.1865574,13.15,4.3
Snack Aydin Beringen,51.0748681,5.2200034,13.133333333333333,4.8
Euro Pizza Grill,50.949074,4.57991,13.125,4.6
Pizza Sultan Westmeerbeek,51.0607777,4.8365614,13.1,4.2
Pitta Sari 9040,51.0528254,3.7474673,13.087499999999999,4.0
Ediz Pizza-Pita,50.9911311,3.8307237,13.071428571428571,4.1
Eethuis Turnhout,51.319332,4.949775,13.066666666666666,4.0
Ararat,50.8116006,5.1899666,13.0,4.1
Baskent Balen,51.1728415,5.1696578,13.0,4.1
De Fontein,51.2191013,4.1945366,13.0,4.4
Istanbul Resto Snack,51.1321422,2.7512009,13.0,4.3
Kebab@Home,50.9369842,4.0271876,13.0,2.7
King Of Kebab,51.0534807,4.8821208,13.0,4.6
Konak Pizzeria Doner Kebab,51.1763368,5.8374658,13.0,2.8
Mamma Mia,50.8133081,5.6691349,13.0,3.9
Mira,0.0,0.0,13.0,4.7
Pitta Izmir 2 Ertvelde,51.1802528,3.7467185,13.0,4.0
Pizza Efe Itegem,51.1032629,4.7276196,13.0,3.8
Pizza Town Houtem,50.9207779,3.8538031,13.0,4.6
Resto Snack Alanya,51.116352,2.681679,13.0,4.7
Brasserie Shammy's,51.1793005,4.3779457,12.9375,4.2
Bosphorus,50.8753181,5.3082716,12.933333333333334,3.9
Cappadocia,51.2180687,4.419398,12.923076923076923,4.1
Melita,50.890503,3.0607631,12.916666666666666,4.7
Friterie Houba,50.8860058,4.3425412,12.9,3.4
Pizzalijn Berchem,51.1973852,4.430622,12.9,4.7
Huzur Pizzeria Kebab,51.1163805,5.2619274,12.857142857142858,4.6
Ottoman Eethuis,50.8730912,5.5212681,12.857142857142858,4.1
Melita,51.2142722,4.2572492,12.816666666666668,3.3
Balen'se Kebap,51.1710139,5.1663912,12.8,4.0
Kent,51.183926,5.1148286,12.8,4.3
Venus 7,51.0874035,5.2196722,12.8,3.9
Venus 8,51.055254,5.2738908,12.8,4.6
Call Pizza,51.0416276,4.5157261,12.78,4.3
The Daily,51.212832,4.2564012,12.76923076923077,3.3
Eetboutique Kaya,50.9075832,5.4189421,12.75,4.6
Pizza Sam,51.3169613,3.133781,12.75,4.1
Seven Kebap 7,50.9323878,5.3422072,12.75,4.1
Snack Unal,51.1866205,5.1177366,12.75,4.5
Pizza Point,51.1235066,4.8682401,12.722222222222221,4.3
Antalya Kebab,51.1948087,4.7340181,12.714285714285714,4.5
Eethuis Meyman,50.9426912,5.2861735,12.714285714285714,4.8
Pitta Gizem,50.9401098,4.0432019,12.7,4.6
Pizzo,50.998208,4.1295875,12.7,4.4
Anatolian Kebap,51.0673158,5.0911336,12.666666666666666,4.3
Sofram,51.0746271,5.2202015,12.666666666666666,4.2
Plaza Snacks,51.0229785,5.3137589,12.642857142857142,4.9
De ster pizzeria & doner kebap,51.0905238,4.9161535,12.625,4.6
Dr. Grill,51.252831,5.106028,12.625,4.4
Efes bij Carlos Niko,50.988972,4.840586,12.625,4.3
Musty Kebab,51.1261817,5.358197,12.625,4.4
Qivvi,51.161534,4.6696033,12.604545454545455,4.7
Aladin,50.9330042,5.3268261,12.6,4.3
Kebab Time,51.226,5.3141255,12.6,3.9
Wemmel Grill,50.91032,4.3009225,12.527027027027026,4.0
Kebap Store,50.9799202,4.9708248,12.526315789473685,3.9
Anka Kebab,50.9073594,5.0596721,12.5,4.3
Boston Pizza,50.9672032,3.9770103,12.5,4.3
De Mijn Kebab,51.0372686,5.3310157,12.5,3.8
Eethuis familia,51.219894,4.2795415,12.5,3.8
Frituur Cité,50.9811288,5.4923153,12.5,4.1
Gold Pizza,51.2464296,4.4477511,12.5,4.5
Kebap Corner,50.978933,5.0567785,12.5,3.8
Madame Gusto,50.8856404,4.3176225,12.5,3.0
Pizza & Pitta Home,51.1060883,3.9879205,12.5,3.2
Pizza Florida,50.839714,3.47281,12.5,4.8
Pizza Midas,51.2080947,3.4510793,12.5,4.4
Pizza Trenti,51.2536044,4.5023549,12.5,4.4
Pizzeria Pompeji,51.1975082,4.4527734,12.5,3.8
Pyramide,51.24612,5.54582,12.5,4.9
Snack Corner,51.0702663,4.036278,12.5,4.8
Snack Opwijk,50.9691957,4.1890306,12.5,4.3
Snack Ot's,50.8709745,4.375243,12.5,4.5
Snack Sympa,50.8365798,4.3661102,12.5,3.9
Steakhouse Mamma,51.4430011,4.9296567,12.5,4.1
Toscana,51.1586094,4.4913434,12.5,4.5
Pizza Efe Hulshout,51.0759414,4.7886443,12.43888888888889,3.5
Kral Snacks,51.1750392,5.1355752,12.428571428571429,3.8
Ada Grill & Burger,50.8465692,5.6941176,12.4,4.1
Dennis Kebap,51.0698019,5.0882976,12.4,2.9
Frituur Heuvelpoort,51.0370599,3.726667,12.4,3.6
Number One Snack,50.9453622,5.2611201,12.4,4.1
Pizza Hanoo,51.0021956,3.8813768,12.4,4.4
Pizza Ti Amo,50.8745392,4.6914768,12.381666666666666,3.3
M&N Royal,51.0761247,4.7219067,12.38,4.1
Eethuis Bij Hakan,51.0347288,5.729146,12.375,4.3
Ali Baba Stalenstraat,50.9935263,5.5186807,12.333333333333334,3.9
Ali Baba Vennestraat,50.9802545,5.4919544,12.333333333333334,3.9
Eethuis Mehmet,50.8487033,5.4899992,12.333333333333334,4.7
Istanbul,50.8788052,4.7001891,12.325,3.6
Kebap Nisa,51.1982186,3.2193108,12.3125,4.5
Best Grill,50.7710849,3.8828792,12.285714285714286,3.8
Ali Baba,50.8788873,4.7000875,12.283333333333333,3.7
Amon,51.2950518,4.4892408,12.25,3.7
Asmin,51.060475,3.7477763,12.25,4.3
Bosphorus,51.1038132,3.9928181,12.25,4.4
Hever Kebab,50.992436,4.555168,12.25,3.9
Isis,51.4281673,4.4618152,12.25,3.9
La Rosa,51.1819222,4.6016273,12.25,4.0
Moni,51.2054624,4.4728745,12.25,3.7
Pizza Pita Ege 2,51.0555994,4.2056305,12.25,3.9
Pizza kebap Pasa,51.0538633,4.883327,12.25,4.2
Pizzeria Alma,50.87551,4.7301188,12.25,4.1
Sebo,50.8084433,5.4662026,12.25,4.2
Pitta Kebab Sude,50.9998937,3.7501562,12.222222222222221,3.4
Bel Kebab,51.0588082,5.2733333,12.214285714285714,4.6
Reet Grillhouse,51.1148621,4.3898315,12.2,2.8
Poker Friet,50.9865354,4.7810916,12.1875,4.1
Eethuis Troja,51.1788669,4.831852,12.166666666666666,4.3
Orient KURINGEN,50.9415088,5.3007665,12.166666666666666,4.4
Pizza La Vince,51.0992448,4.2342988,12.166666666666666,3.8
Topkapi-Pitta Grillhouse,51.132175,2.6723878,12.166666666666666,3.9
Pitta & Pizza Antalya,51.2114476,4.251832,12.152173913043478,4.2
Grillhouse Kusadasi,50.9311393,5.5741936,12.142857142857142,4.7
Pizza Efe Olen,51.1433937,4.8599987,12.125,4.0
Sahin Eethuis,51.18434,4.9846778,12.125,4.5
TAT,50.9263663,5.3399257,12.116666666666667,4.4
Pizza Pitta Flora,51.0193229,3.764036,12.105555555555556,4.3
't Kebabske,51.0258352,5.3753281,12.1,4.5
Anatolia,51.0280462,4.0987641,12.1,3.3
Anatolia 23,51.2514972,5.5466132,12.1,4.6
Sam Kebab,50.987235,4.8388002,12.090909090909092,4.3
Milo II Kebap Pizza Pasta,51.2372439,5.113052,12.083333333333334,3.5
Pita Sofra,51.17049,4.1440005,12.083333333333334,3.9
Eethuis Florya Neerpelt,51.2317153,5.4469011,12.071428571428571,3.9
Pizzaria Gunther,51.117996,4.656598,12.071428571428571,4.6
Pizza Efe Berlaar,51.0828962,4.6687013,12.0625,4.0
Stela,51.1046623,5.0021347,12.05,3.3
Best Kebab,51.232577,2.9159456,12.0,3.3
Can Snack,50.9429437,4.0288648,12.0,3.9
De Waterput,51.33266,4.9590822,12.0,3.9
Eethuis Istanbul,51.0320949,4.8327207,12.0,4.2
Euro Kebab-Pizza,51.027906,5.5321544,12.0,4.5
Fresca,50.8448432,3.6028256,12.0,4.3
Frituur Pitta Twee Deuren,50.9413006,3.6335992,12.0,3.8
Izmir Kebab,51.232292,2.914207,12.0,3.6
Karine Grembergen,51.0448154,4.1055125,12.0,4.4
Kebap - Pizza De Brug,0.0,0.0,12.0,5.0
Kebap Kursat,50.9787777,4.9792033,12.0,4.0
M84U,50.8068626,5.0969517,12.0,4.5
Mario's Pizza,51.2924252,4.4441251,12.0,3.9
Memo Pizza,50.9196292,3.8620404,12.0,3.9
Osman Kebab Pizzeria,50.817049,5.1770964,12.0,4.4
Pita Piramide,50.9379926,4.0319358,12.0,4.0
Pita Pyramide,50.8443904,3.6037331,12.0,4.0
Pita4you,0.0,0.0,12.0,4.4
Pitta & Grill ‘T Parkske,50.8456491,3.6096502,12.0,4.5
Pizza Bodrum,51.069962,4.5316614,12.0,4.1
Pizza Efe Westerlo,51.0875698,4.8717344,12.0,4.1
Pizza Grill Huis,50.9306343,4.7245528,12.0,4.6
Pizza Palace,51.145525,4.2987186,12.0,3.9
Pizzaria Vlam II,51.3706301,4.9941559,12.0,4.6
Snack Aydin Genk,50.9635393,5.500285,12.0,4.5
Snack Bodrum,50.84294,4.4083082,12.0,3.9
Snack Georges Henri,50.8437401,4.4126857,12.0,4.7
Snack Kursatto,50.7475772,3.6015994,12.0,4.1
Snack L'oppem,50.8594957,4.5141147,12.0,4.1
Snack-Grill Berchem,51.1976017,4.4242343,12.0,3.3
Urban pizza,51.0531394,3.7461081,12.0,3.7
Wow Pizza,51.303104,4.7355146,12.0,3.6
Huzur Pizzeria Kebab,51.1618789,4.9908608,11.95,3.2
La Monte Carlo City,51.2184284,4.4304207,11.95,4.2
Pizzeria Kebap Selin,50.8325241,5.1042698,11.944444444444445,4.9
Baskent Peer,51.1299453,5.4185639,11.928571428571429,4.2
Eethuis Taksim,50.8042765,5.5746671,11.9,4.1
La Monte Carlo,51.2308451,4.4063067,11.9,4.2
Loons Qebap,50.8026021,5.3490397,11.9,3.7
Pizza Deal,51.1643562,4.4998914,11.9,4.7
Pizza Sole Mio,50.878939,4.700268,11.9,2.5
Pizza Star,51.1211835,4.1964177,11.9,4.3
Q'bap Gent,51.049376,3.730604,11.9,4.0
Snack Tosi,51.0408567,3.7253756,11.9,4.4
Kaya,50.920294,4.756737,11.88888888888889,4.6
Chicken World Gent,51.0416463,3.7297433,11.85,4.8
Baskent Tessenderlo,51.0673327,5.0875676,11.833333333333334,3.7
Huzur Pizzeria Kebab,51.1447208,5.7423493,11.833333333333334,3.1
Karine Dendermonde,51.0290797,4.0986522,11.833333333333334,3.9
Ottoman Pizza & BBQ,51.06103,3.6932049,11.833333333333334,4.4
Restaurant Marmaris,51.1700383,4.3873492,11.833333333333334,4.1
Vero Napoli,51.1320362,4.4468262,11.833333333333334,4.0
Ali Baba,51.0185386,4.4824376,11.818181818181818,4.4
Eethuis Orient,50.8228108,5.1759431,11.8,4.0
Lara Eethuis,51.003218,4.1255906,11.8,4.4
LindelBaskent,51.1953055,5.4032187,11.8,3.9
Merdin 1,50.8841354,4.7230861,11.8,3.5
The Vend,51.207916,4.392708,11.8,4.4
"Efes Grillhouse, Kebab & Pizzeria",50.9798127,5.0549133,11.777777777777779,4.6
Ali Baba,50.77303,4.5392365,11.75,4.3
Baskent Meerhout,51.1210878,5.0539219,11.75,4.9
Centrum Kebap,50.9933773,5.3678495,11.75,3.4
Fansa,51.2187238,5.3134026,11.75,4.2
Gül Food,50.8479888,4.3099943,11.75,4.4
Istanbul Grill Huis,50.9909538,4.8407489,11.75,4.0
Napoli Pizza Grill,50.9083137,4.6756146,11.75,4.0
Pitta Alpay,51.1076122,3.9004134,11.75,4.5
Pizza & Kebab Zeebrugge,51.3131951,3.1876991,11.75,4.2
Pizza Milano,51.0994106,4.2343152,11.75,4.1
Venezia,51.46431,4.45796,11.75,4.3
Donerix,51.2489808,4.4543133,11.733333333333334,3.7
Pita Pizza Pyramide,51.38298,4.47518,11.725,3.6
Top Snack,51.161282,4.669973,11.722222222222221,4.3
Ton Ton Snack,51.0415591,3.72555,11.72,3.9
Baskent Averbode,51.028309,4.9815332,11.714285714285714,4.5
Pizza Roma Mechelen,51.03616,4.475636,11.7,3.4
Snack Twenty Six,50.8186283,4.3792999,11.68888888888889,3.0
Liman Grill House,50.998704,5.512514,11.666666666666666,4.6
Pizza Meet Point,51.0952496,4.5029904,11.633333333333335,3.9
Pizza Pita King's,50.8902312,3.0602099,11.625,3.8
Pizza Zaga,51.0702424,4.531321,11.625,4.3
Doy Doys,51.1968244,4.4580891,11.622222222222222,4.3
NewWay Leuven,50.8760583,4.7089882,11.6,4.0
Rozalin Kebab Pizza,51.351267,4.6441514,11.6,4.0
Snack Marmara,50.8536962,4.3882244,11.591666666666667,0.0
Baguette & Salad Bar,50.8779438,4.6987789,11.59,3.5
Eat-Point,50.7937035,5.2203537,11.583333333333334,4.0
Adak Kebab,51.250926,5.5421495,11.555555555555555,4.2
Amon,51.1162628,5.2592204,11.5,3.8
Efes Geetbets,50.8901089,5.1147702,11.5,4.5
Istanbul Snacks,50.9755102,5.4706466,11.5,4.4
Kebap Xpress,51.3219452,4.9401798,11.5,4.0
Pita Huis Blauwwater,51.2075136,4.4135132,11.5,4.4
Pitta Canan,51.0616385,3.700181,11.5,4.4
Pitta Murat,50.9438126,3.1247193,11.5,4.0
Pitta Pizza Ludwig,51.1325761,3.6796668,11.5,3.6
Pizza Corner,51.2561525,4.0899404,11.5,4.2
Pizza Pasta Nr1 City,51.2068362,4.3928489,11.5,4.2
Pizza Roma,50.8508582,2.8868742,11.5,2.6
Resto Simke,50.733166,5.2091265,11.5,3.7
Snack Aydin Ham,51.1045326,5.1772193,11.5,4.4
Snack Best Grill,50.9142631,4.1931411,11.5,3.7
Snack Dodo,51.0304194,3.8018376,11.5,3.6
Snack Dylan,50.8600219,4.4176894,11.5,4.8
Arabesque,51.2076757,4.465059,11.481818181818182,4.2
Uniq Kebab,51.02694,3.7218974,11.449999999999998,4.5
Kapadokya döner,51.229379,5.3068659,11.428571428571429,4.1
Lilse Kebap,51.2371943,4.8258901,11.428571428571429,3.9
Pizzeria Dilan,50.8836767,4.7197713,11.428571428571429,3.5
Pizza Istanbul,51.0956102,4.1426429,11.416666666666666,4.6
Indian tadka & Istanbul kebab,50.9896628,5.0502084,11.4,4.5
Saray,50.8006942,4.9563972,11.4,3.7
Turkische Food,50.852814,2.893423,11.4,2.2
Orient Diest,50.9800088,5.0445122,11.399999999999999,4.0
Pizza Pasta Nr1,51.1342628,4.4520796,11.379999999999999,3.8
Chef Eethuis,50.9912688,5.3688786,11.375,4.4
Florya Kebab & Pizzeria,51.019872,5.4752219,11.375,3.3
Grill House Centrum,50.9642271,5.4949196,11.375,4.1
Nefertete,51.1869835,5.1173167,11.375,3.8
Pasta Pitta Derik,50.941807,4.044479,11.375,4.3
Pizzeria Sipan,50.9884214,4.7820077,11.375,4.7
Ramses II,51.394011,4.5962642,11.375,4.1
Yum Smaak,51.34099,3.2888477,11.375,0.0
Pitta New York,51.0945939,4.143846,11.350000000000001,4.1
Ali Baba,51.0782718,5.2187304,11.333333333333334,4.3
Ali's Eethuis,51.0864141,4.3285395,11.333333333333334,3.1
Hasseltse Kebab,50.9301263,5.3318256,11.333333333333334,3.3
Orontes,51.0318177,5.3730854,11.333333333333334,4.6
Pitta Can,51.062187,3.7498953,11.333333333333334,3.6
Pizzeria Evin,50.9043522,4.7222932,11.333333333333334,4.6
Pizza Bulls,51.0996057,4.2404586,11.321428571428571,4.2
Snack Grill Dansaert,50.8521231,4.3439342,11.313333333333333,3.4
Snackbar Tasty,50.9945976,4.7097848,11.3125,3.6
Frituur-Grillroom Dalia,50.8605512,5.6178644,11.3,4.6
Pizza Trenti,51.1379308,4.3783788,11.3,4.3
Grand Station,51.0967684,4.2329777,11.285714285714286,4.4
Turkoase,50.9863669,5.0487732,11.285714285714286,4.3
Pita Babylon,50.9393891,3.1221289,11.25,4.6
Pita Ephesus,50.6641724,5.5366125,11.25,3.9
Pitta Bodrum,51.0426523,4.104073,11.25,4.4
Pitta Seker,50.954109,4.0630978,11.25,4.9
Pitta Yasmin,51.0712026,3.7095474,11.25,4.3
Pittazino,50.931698,4.0362616,11.25,4.7
Bella Vita,51.2788573,4.4188902,11.24,4.3
Eetcafe Antep,51.3915605,4.4668839,11.214285714285714,3.9
Pizza Yavuz,51.0522166,3.7485857,11.214285714285714,4.0
Schaffense Kebap,50.997961,5.077685,11.214285714285714,4.6
Adana Kebab,51.0290669,4.4883672,11.2,3.5
Aly Baba,51.4678223,4.4682463,11.2,3.2
Cizbiz Donerland,51.227137,4.4502062,11.2,3.8
Ronse Grill,50.749761,3.5969296,11.2,3.6
Snack Gab & Dav,50.8653653,4.3885953,11.2,2.6
Eethuis Musti,50.8221402,4.8914991,11.166666666666666,4.4
Sezer Snack-Pizza,51.059011,3.7042263,11.166666666666666,4.4
Pitta Mr. Food,51.1542688,3.2375995,11.160714285714286,3.8
Eethuis Florya Lommel,51.2321067,5.3469081,11.142857142857142,3.6
Pinocchio,51.2508647,4.4479395,11.142857142857142,4.6
La Casa Pizzeria,51.1338131,4.4428021,11.125,4.2
Unal Snacks,51.0031161,4.6327539,11.125,4.7
Eethuis Dalin,51.1811525,4.8300739,11.120000000000001,4.1
Kebab Oelegem,51.2132023,4.5908882,11.11111111111111,4.6
Pitta Roos,51.1987497,3.1889283,11.100000000000001,3.3
Eethuis Star,50.9477982,5.344999,11.1,4.2
Foodtruck Pitta Mustafari,51.036934,3.7413306,11.1,0.0
Oklava,51.153099,5.392288,11.083333333333334,3.9
Snack Overpoort,51.039307,3.725667,11.071428571428571,3.1
Sude Snacks,51.1310279,5.4576418,11.071428571428571,4.1
Amber's Pizzalijn,51.112926,5.638634,11.0,4.6
Antalya Grill,51.2245941,2.9087838,11.0,3.8
Atlasresto,50.8595094,4.3623686,11.0,4.1
De Chef,51.0524419,4.7776624,11.0,3.9
De Pyramiden,51.1785108,3.7467088,11.0,4.1
Doner Kebab Bahri,51.0316401,5.3725979,11.0,4.7
Durum Express,50.8475034,4.303581,11.0,3.5
Döner Kebab Anatolia,50.8067955,5.2858685,11.0,4.1
Frituur Muzzy,51.0391266,5.2998532,11.0,4.4
Heide,51.0306176,4.7567441,11.0,4.1
Il Gusto Pizzeria,51.2203373,4.4026728,11.0,4.3
Iran Chicken Grill,51.2038924,3.2084074,11.0,4.0
Istanbul,51.1609827,4.9906752,11.0,3.6
Kaai Pizzeria,51.1336097,2.7538643,11.0,2.9
King Kebap,50.9770486,4.6345681,11.0,3.2
Lommelse Kebab,51.2261487,5.3141093,11.0,3.5
Masaya,50.9158814,4.6556004,11.0,3.7
Merdin 2,50.9407756,4.7316923,11.0,4.5
New Maan Pizza & Wok & Burger,50.8780503,4.7196363,11.0,3.6
Pitta Kervan,51.0410855,3.3964371,11.0,4.3
Pizza Desperado,50.841038,4.834623,11.0,4.2
Pizza Dino 21,50.8246451,4.5132418,11.0,4.4
Pizza King,51.0651573,3.7264744,11.0,4.4
Post'a Kebab,50.9074031,4.2053163,11.0,4.1
Ramses,50.8777072,4.346458,11.0,3.9
Route 46,50.925087,3.9524026,11.0,4.5
Ruby Frituur,51.2179472,2.8950886,11.0,3.2
Snack Aladdin,50.8330455,4.3740091,11.0,4.3
Snack Altan,50.8672003,4.3589807,11.0,3.3
Snack Chez Zeki,50.8548619,4.3673975,11.0,4.7
Snack Denderleeuw,50.8922625,4.0729595,11.0,4.4
Snack Frituur Hanoodi,50.967342,3.9873674,11.0,4.1
Sultan Testelt,51.0184101,4.9488446,11.0,4.2
Tasty Food Vesalius,50.8752133,4.7079149,11.0,3.5
The Food Affair,51.3491317,3.2893011,11.0,4.4
Toronto Pizza & Burger,50.7709132,3.8756524,11.0,4.0
Venus,50.9995553,5.3320171,11.0,4.1
Zelem Pizzeria,50.9780074,5.1217436,11.0,4.7
Pizza Lacasa,51.127893,4.2160941,10.9625,3.9
Pizza@Home,51.2916329,4.4938601,10.95,3.2
Heist Kebab,51.0756262,4.7252205,10.928571428571429,4.5
Pizzeria La Familia,51.17228,4.4470744,10.928571428571429,4.5
Magic Kebap-Kessenich,51.1522604,5.8106697,10.916666666666666,4.4
Layana Food,51.244299,4.4447138,10.9,3.4
Mam's burger,50.9008109,4.3607925,10.9,4.3
Pitta Number 1 Bredene,51.2486088,2.9667543,10.9,4.7
Pizza Pamukkale,51.1272762,4.2120871,10.882352941176471,3.8
Elite Kebab,51.1287558,4.5771098,10.875,4.0
Nazar Side,50.8096291,4.9320733,10.875,3.3
Soyy Eethuis & Gelateria,51.05137,5.239609,10.875,4.3
Kebap Mustafa,50.8926649,5.1141853,10.833333333333334,4.7
Munis Restaurant,51.0194736,4.4822218,10.833333333333334,3.9
Pitta Number 1,51.3426788,3.2880538,10.833333333333334,4.4
Pitta Reco,51.1892163,3.2116095,10.833333333333334,4.1
Pizza Delicia,51.0014269,4.3023356,10.833333333333334,3.9
Rana,51.1736447,5.5797481,10.818181818181818,4.1
Anatolia,50.986765,5.1927006,10.8,4.1
Frituur brother's,50.8974472,4.4350421,10.8,4.4
Napoli Heers,50.752292,5.302248,10.8,3.5
Pitta Cem,51.3142247,3.1268987,10.8,4.7
Chef Tielen,51.2438076,4.8955912,10.777777777777779,3.1
Pita Vrede,50.9387904,4.0332502,10.75,4.8
Pizzeria Grissini & Kebab House,51.0000089,4.5861227,10.75,4.4
Pizzeria Saray,50.938774,4.619825,10.75,4.8
Pizzaria Mr. Sebino,51.2251981,3.2314266,10.714285714285714,3.8
Goody's,51.1852106,3.5627169,10.7,4.5
Pizza Verona,51.2439049,4.5922835,10.7,3.1
Snack O Tac,50.8695437,4.3328935,10.7,4.5
Pitta Mersan,51.1038131,3.9879605,10.6875,4.3
Duffelse Kebab,51.0954102,4.5099468,10.685714285714285,3.2
Dunya Döner,51.2220515,4.463011,10.666666666666666,0.0
Eethuis Zemzem,50.8895158,5.6507451,10.666666666666666,4.7
Jerusalem,50.9664556,5.5000842,10.666666666666666,4.5
Kebap Anatolia,51.3249431,4.9393244,10.666666666666666,3.9
Pitta Maldegem,51.2139925,3.4468523,10.666666666666666,3.9
Posh Kebab,51.2334662,2.9214644,10.666666666666666,4.2
Rinascente Eethuis,51.2202396,4.4594739,10.666666666666666,4.3
The Black Horse,51.0758523,4.7251002,10.666666666666666,4.9
Ela Kebap,51.1318678,5.0810792,10.625,4.7
Pita Muradim,51.2076892,4.3887578,10.583333333333334,4.3
Pitta Destelbergen,51.0587544,3.8182144,10.583333333333334,4.0
Snack Antalya,51.0286715,4.4845363,10.583333333333334,4.2
Lilse Kebab 2,51.2684622,4.8671555,10.571428571428571,4.0
Boston Pizza & Burgers,50.8897114,4.5524114,10.5,4.2
Burger Kofte,50.9886723,5.6955838,10.5,5.0
Eethuis Taha,51.080901,4.430953,10.5,4.6
Eldina Snack,51.2409064,4.4391414,10.5,4.8
Frituur L'Orient Express,50.7315003,4.2309004,10.5,4.1
Grillades Panios,50.8502978,4.3751426,10.5,3.4
Kalender Frietjes,50.8678838,4.4504362,10.5,3.7
Le 1050 Snack,50.8289445,4.3726359,10.5,3.7
Magic Food,51.0950361,4.1359653,10.5,4.6
Miracle,50.8306611,4.3904781,10.5,3.9
Murat Pita Pizza Pasta,51.3519864,4.3974537,10.5,4.3
Naroj,50.8932578,4.7740197,10.5,4.8
Pasa Snack,51.1654451,4.989585,10.5,3.9
Pitta Magic,50.8612862,4.3716419,10.5,3.5
Pizza Boxx,51.204868,4.3961402,10.5,4.3
Pizza Giorno,51.2526622,4.5033576,10.5,3.5
Pizza Pisa,51.0643909,3.7264021,10.5,4.4
Pizza Pita Grillroom Milano,51.3141839,3.3022606,10.5,4.3
Pizza Pita Pala,51.1701238,4.3120615,10.5,4.2
Pizzeria Luigi,50.8893431,5.2900713,10.5,4.4
Place 2 Eat,50.9483796,3.1296242,10.5,3.8
Snack House,50.8709662,4.2639294,10.5,4.5
Snack Maya,51.2016103,4.4334429,10.5,3.0
Snack O'Laeken,50.8779263,4.3477112,10.5,0.0
Snack Pizza Bodrum,50.90637,4.207182,10.5,3.7
Snack de Hoek,51.2247607,4.4548562,10.5,3.9
Snack de Linde,50.8360019,4.3001559,10.5,3.2
Tokcel,51.0921674,4.0255789,10.5,4.7
Trend Kebab & Pizzeria,51.0940817,5.7923279,10.5,5.0
Ustun Kebab,51.0241203,5.3752994,10.5,3.6
Yamy Food,50.8804476,4.6960742,10.5,4.2
Pitta Point,50.8032244,5.5709341,10.49,2.8
Maestro,51.0033413,3.8004919,10.458333333333334,4.0
Brugge Kebab,51.2100923,3.2231422,10.444444444444445,3.8
Pitta Number 1,51.3125245,3.1272587,10.444444444444445,4.3
Hapjes Time,51.3214973,4.9371254,10.413157894736841,3.9
Snack Zomergem,51.1184148,3.5611182,10.4,4.1
Cairo One,51.2146721,4.2533856,10.375,4.8
Pizza Aurelia,51.071333,3.7306784,10.35,3.1
Cappadocië,50.9658811,5.5022231,10.333333333333334,4.1
Kadirga,51.0391626,5.3002396,10.333333333333334,4.6
Kebaba,51.232254,5.331347,10.333333333333334,4.5
LivaKebab,51.2026936,4.3901947,10.333333333333334,4.5
Maara Uno,50.8396305,5.0213554,10.333333333333334,4.3
Payitaht,51.0733844,5.2258014,10.333333333333334,3.5
Pizza Roma,50.9236701,4.692179,10.333333333333334,3.8
Pizzeria Lina,51.1861375,4.3874416,10.333333333333334,3.9
Snack Pitta 't Hoeksken,51.002115,4.3020346,10.333333333333334,4.3
You You,50.9434713,3.9847027,10.333333333333334,3.9
Pizza Florence,51.135815,4.4435816,10.3,4.0
Panini & Grill,51.0404918,5.3049018,10.285714285714286,4.7
Pizza Pasta Pita Mazador,51.21871,4.424192,10.283333333333333,3.5
Orient Lanaken,50.8947108,5.6650737,10.277777777777779,4.3
Bella Rosa,51.1676609,4.4521842,10.25,4.3
HB Resto,51.0514672,3.662672,10.25,4.7
Pizzeria Messina,50.9911804,4.4926872,10.25,4.6
Snack Simonis,50.8635911,4.3301211,10.25,3.0
Snack Royal,51.2127031,2.8822633,10.222222222222221,4.3
Snack Top's,50.818046,4.3929502,10.222222222222221,4.5
Andromeda,51.0402796,3.7254715,10.216666666666667,4.7
Ali Baba Restaurant,51.219015,4.4199488,10.200000000000001,3.8
Pitta Corner,51.3152888,3.1271573,10.181818181818182,4.8
Frituur De Mijn,51.0730633,5.2227106,10.166666666666666,4.0
Grill & Service,50.8820908,4.713554,10.166666666666666,4.0
Sewar Snack-Resto,50.8822221,4.7133678,10.156666666666666,3.4
Ali Baba,51.0763479,4.721808,10.125,4.6
Golden Friet,51.0566182,3.7099235,10.125,2.4
La Dany,51.2069524,4.4150948,10.125,4.0
Sila Snack & Pide,51.1872698,4.4285447,10.125,4.1
Snack Délice Halal,50.8039908,4.3364598,10.076923076923077,4.2
Big Bite,51.2028147,4.4838906,10.015625,3.6
Apollo Pizza,50.9100396,4.1993064,10.0,4.7
Burger House,51.061226,4.361404,10.0,3.5
El Nacho's,50.9412639,4.0392034,10.0,4.5
Food Box,51.2234184,2.9064047,10.0,4.4
Frituur Anita,50.95023,4.0558586,10.0,3.9
Frituur De Petaat,51.2141448,4.4101504,10.0,4.1
Frituur Statie,51.1992501,4.4287476,10.0,4.3
Grill Bar - The Shake,50.88357,4.081533,10.0,3.0
Hakko,50.8580323,4.3188731,10.0,0.0
Italian Delights,50.9493699,3.2893233,10.0,4.1
Izmir Snacks,51.2545203,5.4785896,10.0,4.8
Kebab Company,50.8813682,4.7156895,10.0,3.8
King Kebab,51.2094748,3.22894,10.0,3.2
Le Cerisier,50.84671,4.4136806,10.0,4.6
Les 4 Goûts,50.8596365,4.3409006,10.0,4.5
Liya Kebab & Pizzaria,51.3320877,4.3652936,10.0,3.6
Miam's Burger,50.8297152,4.3433057,10.0,3.4
Mr. Ribs,51.3129515,4.4294497,10.0,3.6
Nasip,50.8888527,5.527032,10.0,4.5
Njam Njam Pizza,51.0867384,3.4484218,10.0,4.1
Pakistan Royal Food,51.2337942,2.9164435,10.0,4.3
Palmira Restaurant,51.2182671,4.4183326,10.0,0.0
Pita Pizza Pasta Ararat,50.9613236,4.4549823,10.0,4.0
Pitta Corner,51.2337831,2.9164431,10.0,3.9
Pitta Diana,51.185037,3.5638525,10.0,4.0
Pizza De Hoek,51.071335,3.7306783,10.0,4.3
Pizza Diamond,51.0017346,3.751311,10.0,4.3
Pizza Ozy,51.1325761,3.6796668,10.0,3.2
Pizza Palace Fastfood,51.0017551,3.8777948,10.0,3.4
Pizza&Co,50.7805606,3.1251744,10.0,4.1
Pyramida - Grill,50.98005,3.5329998,10.0,4.2
Sali Kebap,50.7802657,5.4635312,10.0,3.0
Snack Joker,50.8634042,4.3774531,10.0,4.3
Snack Memo - Chez Feyyaz,50.860157,4.371001,10.0,4.5
Snack Mimoza,50.8880768,4.3398709,10.0,4.3
Snack Oostende,51.2296711,2.9191153,10.0,3.8
Snack Tip Top,50.8133607,4.3386547,10.0,4.4
Sofra,50.9644592,5.69626,10.0,3.8
Turkuaz Kebap,50.8493196,4.3741259,10.0,4.1
Ealaa Kayfik,51.2181348,4.4199321,9.99,2.8
Pizza Maestro Belsele,51.14608,4.0850115,9.95,4.6
Snack Aalst,50.9399256,4.0258409,9.9375,4.1
Pizza Sara,51.0912225,4.1360277,9.928571428571429,3.3
Pizza Stop,51.0388277,3.7465613,9.925,4.1
Dilsu Pizza Pitta,51.0599073,4.3605483,9.90090909090909,3.4
Food King,50.8455292,4.2840575,9.9,4.1
Kaya Pitta,0.0,0.0,9.9,2.1
Lunch Halte,51.2437152,4.4433173,9.9,4.1
Pizza Monza,51.2041539,4.5231233,9.9,3.5
Snack Bockstael,0.0,0.0,9.9,4.3
Snack Hakan,50.8686357,4.3122373,9.9,4.1
Merdin 3,50.9925856,4.7061002,9.88888888888889,4.3
El Baraka,51.2222301,4.4356682,9.8875,4.2
Alex Grill House,50.9115883,4.1956724,9.875,3.3
Pitaverne,51.2023183,4.4855979,9.875,4.2
Pizza La Famiglia,50.983724,4.461841,9.875,4.2
Pizza Pitta Melissa,51.0661099,4.034365,9.875,3.5
Pizzeria Grillroom Dudi,51.0958982,5.7928862,9.875,3.4
Mehtap,51.22145,4.4618373,9.833333333333334,4.1
Pizza Company,51.21308,4.257836,9.833333333333334,1.7
't Hoekske,50.7841913,5.474018,9.8,3.0
Food Like Home,50.8004216,4.3173681,9.785714285714286,3.3
Pizzalijn Merksem,51.2387006,4.441577,9.785714285714286,3.1
Broodjescorner,51.3153417,4.9499194,9.75,3.9
Pitta & Pizza Izmir Eeklo,51.181997,3.5726984,9.75,4.7
Pizza Grens,51.4447886,4.9250641,9.75,3.8
SixtyOne,51.1687661,3.8579406,9.75,4.4
Snack Saint-Guidon 2012,50.8349281,4.3061951,9.75,3.7
't Stad Kebab,51.2124675,4.4076701,9.714285714285714,3.9
Grill Mix Centrum,51.050273,3.730271,9.7,3.8
Twins,50.7738295,4.886823,9.666666666666666,4.3
Amon,51.1829676,4.3842068,9.625,3.9
Cook Mazi,51.027973,4.4791218,9.625,3.9
Snack Taksim,50.8669161,4.3761611,9.625,4.2
New City,51.0211834,5.4712118,9.6,3.8
Nino Grill,50.8364771,4.0263442,9.5625,3.5
Snack Twins,50.8025734,4.3411907,9.5625,4.6
Allo Pizza,50.7712832,3.0456823,9.5,3.9
Anatolie's,51.1166965,3.7142608,9.5,4.1
Burger at Home,50.9333642,4.5379418,9.5,4.1
Cleopatra,50.8559926,2.7291697,9.5,3.6
Couleur Safran,50.7871651,4.3295849,9.5,3.8
Le Kasseria,0.0,0.0,9.5,4.6
Marmara,51.2009456,3.8055828,9.5,3.2
Nisa Pita & Kebab,51.2080005,4.4643167,9.5,4.4
O'Couscous,50.7951364,4.3212211,9.5,3.7
Petit palais,50.8567628,4.3729156,9.5,4.0
Pita & Pizza Ela,50.8728694,3.1824152,9.5,4.4
Pitta 03,51.0386761,3.7102649,9.5,4.7
Pizza Mr. Food,51.1544825,3.2358945,9.5,4.3
Pyramide grillroom pizza pita pasta,51.227605,4.5182991,9.5,4.1
Resto Borsa,51.18893,4.4331958,9.5,4.1
Snack Araff,50.864184,4.3659068,9.5,0.0
Snack Gold,50.9302208,4.4264047,9.5,4.4
Snack Ledi,50.8800869,4.3472217,9.5,0.0
Snack Melita,50.7962682,3.1212188,9.5,4.1
Snack Mutsaert,50.9013694,4.3608428,9.5,4.7
Snack de la Famille,50.8361415,4.3154125,9.5,3.0
Sultan,51.018772,4.483109,9.5,3.0
The Cousin's,50.8799181,4.3292771,9.5,3.9
Snack Tarik,50.8701943,4.3721496,9.488095238095237,4.1
"Dinner&You Burgers, Grill & More",51.170444,3.8599658,9.463636363636363,4.5
What the Kebab,51.219982,4.4150385,9.450000000000001,0.0
Pitta Istanbul,50.7118857,3.8347091,9.428571428571429,4.3
Eethuis Istanbul,51.3141468,4.9438156,9.416666666666666,3.9
Snack Dayi,50.909688,4.193773,9.4,4.1
Snack Cherif,50.8774576,4.3489332,9.375,4.4
Ghoshto Eethuis,51.196373,4.443489,9.333333333333334,3.2
Pizzaworld,51.2082731,4.4492776,9.333333333333334,4.2
Resto Snack Istanbul,50.920698,3.2155599,9.333333333333334,3.5
Zem Zem,51.3156801,3.1292305,9.333333333333334,4.8
Best Grill,50.8355777,4.2999137,9.325,3.4
Napoli,51.1326409,4.335473,9.316666666666666,4.0
Aras Kontich Snack,51.1326595,4.4462483,9.3125,3.5
Loco Pizza,50.8784156,4.699806,9.3,2.2
Loco Pizza 2,50.87404,4.7090521,9.3,2.9
Pizza Pita Delta,51.0576267,3.7071178,9.3,3.5
Bodrum Palace,51.224524,4.4169147,9.291666666666666,3.6
Mila Palace,51.2456912,4.4478081,9.285714285714286,3.7
Elif Grill Huis,51.1706303,4.4492091,9.25,4.2
Il Viadotto,51.2329328,4.4240106,9.25,4.5
Noumidia Resto,51.323803,4.947664,9.25,4.1
Snack Dekan,50.8800921,4.3296928,9.25,4.9
Snack Istanbul,50.866702,4.3775992,9.25,4.2
Snack Pizza City,50.9095302,4.354658,9.25,4.1
Tadim Kumpir,50.859793,4.3766128,9.25,4.2
Tradita,51.1605694,4.1507192,9.25,4.3
Fresh Pita,51.1620708,4.1413516,9.24,4.6
Snack Deniz,51.0412191,3.7253941,9.225,4.0
Hanelly Food,50.8310437,4.3444473,9.214285714285714,1.9
Mc'Döner'S,50.8144757,4.3658038,9.214285714285714,4.8
Best Grill Molenbeek,50.8574331,4.3105647,9.2,3.5
Frituur Koningslo,50.912605,4.372477,9.2,4.3
Pala's Food,50.873455,4.3134475,9.2,4.4
Suslu by Tuna,50.8731519,4.3869141,9.2,4.6
Snack Des Frères,50.8714998,4.3839557,9.196666666666667,3.3
Beyzade,51.2245014,4.4167564,9.18,4.0
Snack Tielt,50.9984585,3.3270373,9.166666666666666,3.7
Snack la Cambre,50.8012434,4.3735706,9.166666666666666,4.9
Kebab Leuven,50.8803556,4.7055925,9.125,3.2
La Maison du Kebab,50.8354388,4.2999718,9.125,3.7
Fast 2 Go,51.0284808,4.4782928,9.11111111111111,3.5
Frituur Nationale,51.213764,4.3978624,9.1,1.4
Pita 't Krokantje,0.0,0.0,9.1,4.3
Pizza Zandhoven,51.2143253,4.65802,9.1,4.6
Snack Bodrum,50.882133,4.4725341,9.1,3.7
Pizza Bella Pitta,51.189492,2.8307733,9.083333333333334,4.3
Pacha Kebab,50.8255249,4.2977704,9.075000000000001,4.3
Snack Arc en Ciel,50.8714801,4.4008113,9.071428571428571,3.7
Snack Resto Istanbul,50.9118822,4.4350511,9.071428571428571,4.4
Snack 4 You,50.8309809,4.4520538,9.0625,3.6
Pitta Palace,51.0286668,4.4803971,9.058823529411764,3.2
Only Kebab,51.22128,4.4026248,9.05,3.3
Snack Mirvan,50.8352676,4.3084661,9.004285714285714,3.7
Ali Baba - Chez Assaad,50.8078796,4.2887373,9.0,4.8
Ali Pizzahuis,51.3015694,4.5703876,9.0,3.7
Breughelhof Cafe Bistro,51.1764672,4.3669013,9.0,4.3
Cesar Pizza Snack,51.042915,3.7373457,9.0,3.8
Damasco,50.8773949,4.703391,9.0,4.1
Dar Es Salaam,50.8505236,3.287144,9.0,4.3
Eric's Burger & Streetfood,50.8577828,4.3642117,9.0,4.1
Family,50.8766627,4.3405033,9.0,4.4
Frituur 't Bekske,51.0407393,5.2817897,9.0,4.5
Frituur Nou Nou,51.1321495,4.5668378,9.0,3.0
Kokorecci Antwerpen,51.2021287,4.3928709,9.0,1.8
La Palmeraie,50.7874891,3.1269461,9.0,4.2
Madina food,50.856793,4.3752124,9.0,4.7
Marrakech,50.8703965,4.3717317,9.0,3.7
Masala Express,50.8083945,3.279237,9.0,4.5
Maxx Pizza,51.1772165,4.8330195,9.0,4.0
Mezopotamya,50.8204079,3.2843159,9.0,3.7
Miss Pizza,51.2162709,4.2514887,9.0,4.5
Mister Pizza,50.992883,3.7468562,9.0,4.3
Pain d'Or,50.9304853,5.3434391,9.0,5.0
Pitta Bon Appetit,51.2318024,2.9144097,9.0,3.9
Pitta Melissa,51.0372872,3.7404987,9.0,3.8
Pizza Pasta Locale,51.2233233,4.4369035,9.0,4.4
Pizza Pita Zottegem,50.8684049,3.8137421,9.0,4.3
Pizza Point,51.2197869,4.3823975,9.0,4.3
Sfinx,51.3221189,4.9524556,9.0,4.4
Snack Au Bled,50.8701326,4.372873,9.0,3.8
Snack Centraal,51.2145585,4.4351753,9.0,3.5
Snack Istanbul,50.7170552,4.6070235,9.0,4.3
Snack Lems,50.821392,4.2943516,9.0,4.7
Snack Medo,51.2076189,4.4280825,9.0,4.1
Snack Merode,50.8386936,4.3977664,9.0,0.0
Snack Stuivenberg,51.222267,4.436264,9.0,4.4
Snack Wielemans,50.8243939,4.327402,9.0,4.3
Snack de la Gare,50.69229,4.2052684,9.0,4.2
Best Fresh,50.7713494,4.5350813,8.99,4.4
Mixor Kebab,51.2192348,4.4203085,8.975000000000001,3.4
King Pizza Vilvoorde,50.929214,4.4269543,8.95,4.2
Snack Ailnor,50.9494353,3.1313294,8.944444444444445,4.2
Valento Pizzeria,51.1402858,4.3375162,8.9,4.4
Salt n' Pepper Snack Burgerhouse,51.2198804,4.4385031,8.857142857142858,3.7
Frituur Karin,50.96179,4.4555063,8.833333333333334,4.3
Snack Aquarium,50.8243819,4.4004368,8.833333333333334,4.1
Snack Boss,50.9420067,4.0351025,8.833333333333334,4.5
Cicek kebab,50.8332944,4.3285403,8.818181818181818,3.7
Eetcafé Ossendrecht,51.3937523,4.3295408,8.8,3.6
Pizza Punto,50.8474702,4.8209022,8.8,4.1
Shaan pizza,51.0971005,3.2095149,8.8,2.7
Snack Tour et Taxi,50.8635228,4.3443448,8.785714285714286,4.1
Pim's Burger,50.8405877,4.3322309,8.75,0.0
Snack Bodrum,50.9285905,4.4218529,8.75,4.9
Pitta Moorselbaan,50.9421771,4.0466792,8.7,4.3
Sardinië,51.1344736,4.5655313,8.7,3.5
Ali Baba,51.1344772,4.5701273,8.666666666666666,3.7
Pizza Paleis Haasdonk,51.1798851,4.2334942,8.666666666666666,4.1
Snack Ayouni,51.2273916,4.4547647,8.625,3.2
Snack Cassaba,50.8765373,4.4066588,8.625,4.4
MARHABA,51.0435964,3.9117998,8.6,3.9
Miro's snack,50.8716804,4.4002252,8.6,4.1
Snack Derya,50.848743,4.3189361,8.590909090909092,3.9
Lunch Factory,50.8364735,4.3392771,8.571428571428571,3.8
Amari's,51.215942,4.3292193,8.5,3.8
Bursa Kebab,51.060844,3.701226,8.5,4.1
Choco Pitta,50.8669031,4.3582998,8.5,3.9
De Hoek Van Marrakech,50.9092739,4.3519413,8.5,4.2
Eethuis Royale,51.21175,4.4283533,8.5,4.1
Frituur Overpoort,51.0405731,3.725505,8.5,3.3
Kebap Food,50.8739395,4.3145004,8.5,3.9
King Pizza & More,51.1595353,4.1439857,8.5,4.4
King Potato,51.1341236,4.3864343,8.5,4.5
Pita Antalya,50.994568,3.3257418,8.5,4.5
Pizza Napoli,50.8418517,4.9459863,8.5,4.1
Pizza Taliano,50.8154097,3.3179776,8.5,4.6
Pizzeria Lyaz,51.0369563,2.8714629,8.5,3.8
Selale Pitta & Grill,51.0638718,3.7095352,8.5,4.2
Snack Alsemberg,50.8156131,4.3400529,8.5,3.7
Snack Au Petit Creux,50.8518175,4.3850787,8.5,4.0
Snack Dag,50.8591069,4.3796936,8.5,3.9
Snack Evere,50.8712543,4.3996881,8.5,4.6
Snack Houwaert,50.8527175,4.373779,8.5,4.1
Snack Papay,50.8367019,4.3808233,8.5,4.5
Snack les 2 Frères,50.8572749,4.3730178,8.5,4.4
Turkish Kebap,50.8778404,4.4096982,8.5,4.2
Pita Planet,51.1639517,4.1394059,8.4375,2.8
Pita Pizza Pyramide,51.0847842,3.4483041,8.4,4.5
Snack Bruxelles,50.8686346,4.374455,8.392857142857142,0.0
Pizza Metin,50.8964317,4.8248638,8.375,4.0
Rifaga,51.1865467,4.3749696,8.375,4.3
Antwerp Kebab,51.2219602,4.4134255,8.333333333333334,3.5
Eethuis Van Gogh,51.1841675,4.4271969,8.333333333333334,3.2
Noor Pizza,50.8078304,3.2801325,8.333333333333334,3.9
Pitta Snack Waarschoot,51.1516652,3.6077882,8.333333333333334,3.5
Snack Grill Pizza Asalam,50.9294474,4.4278192,8.333333333333334,4.8
Atlas Lunch en Grillroom,51.199245,3.811369,8.307692307692308,3.9
La Casa Snack,51.1647761,4.1415672,8.3,0.0
Egmont Snack,51.0224244,4.4820092,8.285714285714286,3.5
Friterie Dailly,50.8529716,4.3882698,8.25,3.1
Frituur De Gitschotel,51.2003641,4.4406549,8.25,3.4
Pitta House 2,50.868915,4.3112619,8.25,4.7
Restaurant Medina,51.1867237,4.3865355,8.25,0.0
Snack Antalya,50.7897166,4.2983155,8.25,4.0
Viva la Snack,50.80947,3.1851952,8.25,3.4
La Rose,51.2180206,4.4181578,8.2,0.0
Star Kebab,51.3216802,4.9367899,8.15625,4.1
Snack Boniface,50.8361915,4.3656511,8.142857142857142,0.0
Chef Kebab,50.87349,4.315421,8.125,4.9
Snackbar 109,51.2039491,4.394389,8.125,4.3
Gulle Lepel,50.9496493,4.3115043,8.041666666666666,4.2
Snack Melike,50.8566814,4.3277586,8.041666666666666,4.4
Almina,51.1785685,4.3587163,8.0,4.1
Don Sako,50.7526979,5.0808884,8.0,2.7
Frituur 't Hoekske,51.2110179,4.4344252,8.0,4.1
Istanbul pizza & pita,51.2798399,4.4187852,8.0,3.9
Mob's Grill (Halal),50.8709695,4.2649549,8.0,0.0
O Saveurs,50.8582362,4.3400189,8.0,4.0
Pitta Isparta,51.0478339,3.7270756,8.0,4.5
Sint-Antonius,51.228675,5.4325213,8.0,2.9
Snack 2500,51.1313923,4.5674943,8.0,4.5
Snack Felix,50.8508108,4.3919207,8.0,3.4
Snack Felix 2,50.8478045,4.3982331,8.0,4.1
Snack La Couronne,50.8297666,4.3786763,8.0,3.9
Snack Muide,51.0730654,3.7310747,8.0,0.0
Snack Seven,50.8219526,4.3421654,8.0,3.4
Tabouleh,51.0387482,3.7467169,8.0,4.4
U Tacos,51.1636273,4.1392218,8.0,3.6
Solav Kebab,51.2189946,4.4202459,7.95,3.5
Antwerp Pizza - Pasta - Kebab,51.2198579,4.4027308,7.875,2.7
A La Turka Berchem,51.1967036,4.4224195,7.833333333333333,4.4
Frituur Plantin,51.2102952,4.4277605,7.833333333333333,2.8
Snack Au Lunch,50.8888894,4.3389537,7.8,4.1
Snack Özmu,50.8397466,4.3070863,7.8,3.9
Snack El Medina,50.9884185,5.6923432,7.75,4.6
Pita Express,51.1829645,4.3833547,7.6875,3.1
Samo Bakkerij & Snack,51.208929,4.4491621,7.65,4.2
Frituur 't Kroontje,51.2329817,4.4531407,7.642857142857143,4.1
Snack & Pizza de Oase,50.9310813,4.4249935,7.625,4.5
De Nijl 1,50.8756293,4.7001928,7.583333333333333,3.0
Snack neerstalle,50.8078851,4.3164883,7.555555555555555,4.5
't Gouden Frietje,51.161182,4.1323647,7.5,3.8
Bolifrit,51.2036366,4.3893121,7.5,4.8
Istanbul Eethuis,51.2190487,4.4193643,7.5,3.2
Kebab Bizet,50.8254856,4.2987251,7.5,3.8
Koz Kebap,51.226234,4.425389,7.5,4.2
Marinah,50.8349879,4.305918,7.5,2.9
Snack 4 You,50.8240914,4.2958255,7.5,3.5
Snack Clems,50.842117,4.33133,7.5,0.0
Snack Cousin,50.8281543,4.3304799,7.5,3.3
Snack La Cage,50.8719335,4.3754976,7.5,4.1
Tucker Food,50.78019,3.0345345,7.5,3.9
Al Baraka,51.037434,4.476926,7.416666666666667,0.0
Best of Kebap & Pizza Dender,50.8920932,4.0721603,7.333333333333333,4.2
Snack Nakhil,51.2179847,4.4288729,7.25,3.5
Damas Veneto,51.2207499,4.4266288,7.19,3.4
Maison Grill,50.8578394,4.319434,7.166666666666667,3.5
Snack Pamukkale,51.0625456,3.6986091,7.125,3.9
Akym Food,50.8769268,4.3792967,7.0,0.0
Bereket Eethuis & Bakkerij,51.2075049,4.465058,7.0,4.3
Buenos Burgers,51.2075496,4.4649243,7.0,2.9
Chicken Center,51.2194223,4.4189822,7.0,4.3
La Medina Chez Houssin,50.8459048,4.3425521,7.0,3.1
Napolitano,51.223938,3.22676,7.0,4.2
Pizza Deliorman,50.8360373,4.3268519,7.0,0.0
Resto Snack Zen,50.9276312,4.4331812,7.0,4.0
Snack Omar,51.2253019,4.4167098,7.0,3.0
Sultan Kebap Geel,51.1666658,4.9889729,7.0,3.1
Snack Istanbul Wayez,50.835412,4.3110307,6.99,4.3
Grillé Darna,50.8701862,4.3722995,6.8,3.9
Chill's Corner,51.1988853,4.4283805,6.75,3.8
Hawin Bakkerij Gent,51.0567129,3.7352987,6.5,0.0
Najmat Al shaam,51.214038,4.4411826,6.5,0.0
Snack Mogusto,50.8391966,4.3341794,6.5,3.8
Sultan Kebap,51.218858,4.4050159,6.1875,3.4
Foodbar Melisa,50.8899295,5.6506281,6.0,3.6
Gevara,51.219154,4.419343,6.0,0.0
Snack Babylon Uccle,50.7997464,4.3366474,6.0,3.7
Street Kap,50.853887,4.3537965,5.7,4.4
Öz Ahi Döner,51.1899559,4.3778795,5.0,4.4
