name,latitude,longitude,avg_price,ratings
Snack Clems,50.842117,4.33133,2.7045454545454546,0.0
Frituur Plantin,51.2102952,4.4277605,3.0381578947368424,2.8
't Gouden Frietje,51.161182,4.1323647,3.477272727272727,3.8
Frituur Nationale,51.213764,4.3978624,3.715367647058823,1.4
Snack Omar,51.2253019,4.4167098,3.893548387096774,3.0
Egmont Snack,51.0224244,4.4820092,4.070588235294117,3.5
Frituur Statie,51.1992501,4.4287476,4.102054794520548,4.3
Pitta Corner,51.2337831,2.9164431,4.175757575757576,3.9
Bereket Eethuis & Bakkerij,51.2075049,4.465058,4.216532258064516,4.3
Snack Melita,50.7962682,3.1212188,4.241176470588235,4.1
Frituur Overpoort,51.0405731,3.725505,4.241641791044776,3.3
La Casa Snack,51.1647761,4.1415672,4.271929824561403,0.0
Frituur De Gitschotel,51.2003641,4.4406549,4.274436090225564,3.4
A La Turka Berchem,51.1967036,4.4224195,4.2890243902439025,4.4
Snack Seven,50.8219526,4.3421654,4.316279069767441,3.4
Rifaga,51.1865467,4.3749696,4.434782608695652,4.3
Buenos Burgers,51.2075496,4.4649243,4.466964285714286,2.9
Pita Express,51.1829645,4.3833547,4.515151515151516,3.1
Fresh Pita,51.1620708,4.1413516,4.54725806451613,4.6
U Tacos,51.1636273,4.1392218,4.550943396226415,3.6
Snack Aladdin,50.8330455,4.3740091,4.557142857142857,4.3
Öz Ahi Döner,51.1899559,4.3778795,4.703389830508475,4.4
Snack Mogusto,50.8391966,4.3341794,4.723404255319149,3.8
Golden Friet,51.0566182,3.7099235,4.780263157894737,2.4
Foodtruck Pitta Mustafari,51.036934,3.7413306,4.8325000000000005,0.0
Frituur Pitta Twee Deuren,50.9413006,3.6335992,4.850450450450451,3.8
Snack La Cage,50.8719335,4.3754976,4.875,4.1
Snack Lems,50.821392,4.2943516,4.885046728971962,4.7
Pita Planet,51.1639517,4.1394059,4.886904761904762,2.8
Tadim Kumpir,50.859793,4.3766128,4.892307692307692,4.2
Turkish Kebap,50.8778404,4.4096982,4.910880829015544,4.2
Grillé Darna,50.8701862,4.3722995,4.926136363636363,3.9
Al Baraka,51.037434,4.476926,4.930379746835443,0.0
Frituur Koningslo,50.912605,4.372477,4.973404255319149,4.3
Pitta Murat,50.9438126,3.1247193,4.978688524590163,4.0
Frituur Nou Nou,51.1321495,4.5668378,4.985454545454545,3.0
Snack Stuivenberg,51.222267,4.436264,4.988636363636363,4.4
Salt n' Pepper Snack Burgerhouse,51.2198804,4.4385031,5.047727272727273,3.7
Snack Ayouni,51.2273916,4.4547647,5.0852941176470585,3.2
Snack Özmu,50.8397466,4.3070863,5.117515923566879,3.9
Snack Tielt,50.9984585,3.3270373,5.12247191011236,3.7
Snack Evere,50.8712543,4.3996881,5.136486486486487,4.6
Snack 4 You,50.8240914,4.2958255,5.157142857142857,3.5
NewWay Leuven,50.8760583,4.7089882,5.1578125,4.0
Snack Antalya,50.7897166,4.2983155,5.1692307692307695,4.0
Pitta Istanbul,50.7118857,3.8347091,5.1695652173913045,4.3
Snack Aquarium,50.8243819,4.4004368,5.207042253521126,4.1
Family,50.8766627,4.3405033,5.213815789473684,4.4
Pitta Cem,51.3142247,3.1268987,5.2153846153846155,4.7
Snack Deniz,51.0412191,3.7253941,5.228571428571429,4.0
Snack Boniface,50.8361915,4.3656511,5.232624113475177,0.0
Snack Cousin,50.8281543,4.3304799,5.2384615384615385,3.3
Snack El Medina,50.9884185,5.6923432,5.24,4.6
Uniq Kebab,51.02694,3.7218974,5.259375,4.5
Snack Dag,50.8591069,4.3796936,5.271428571428571,3.9
Mob's Grill (Halal),50.8709695,4.2649549,5.285915492957747,0.0
Sultan Kebap,51.218858,4.4050159,5.339285714285714,3.4
Snack Muide,51.0730654,3.7310747,5.348958333333333,0.0
Ali Baba - Chez Assaad,50.8078796,4.2887373,5.349038461538461,4.8
Friterie Dailly,50.8529716,4.3882698,5.357246376811593,3.1
Snack Ledi,50.8800869,4.3472217,5.3689189189189195,0.0
Noor Pizza,50.8078304,3.2801325,5.387619047619047,3.9
Hanelly Food,50.8310437,4.3444473,5.3887931034482754,1.9
Gulle Lepel,50.9496493,4.3115043,5.4035714285714285,4.2
Snack Nakhil,51.2179847,4.4288729,5.4075,3.5
Snack Istanbul Wayez,50.835412,4.3110307,5.410983606557377,4.3
Pitta Number 1,51.3426788,3.2880538,5.4158620689655175,4.4
Pizza Pita King's,50.8902312,3.0602099,5.422413793103448,3.8
Chef Kebab,50.87349,4.315421,5.427868852459016,4.9
Frituur Muzzy,51.0391266,5.2998532,5.44041095890411,4.4
Pala's Food,50.873455,4.3134475,5.440522875816994,4.4
Snack Cassaba,50.8765373,4.4066588,5.447058823529412,4.4
Pim's Burger,50.8405877,4.3322309,5.46875,0.0
Snackbar 109,51.2039491,4.394389,5.476470588235294,4.3
Pita 't Krokantje,0.0,0.0,5.484126984126984,4.3
Brugge Kebab,51.2100923,3.2231422,5.496739130434783,3.8
Pitta Maldegem,51.2139925,3.4468523,5.546067415730337,3.9
Shaan pizza,51.0971005,3.2095149,5.553153153153153,2.7
Pita Sofra,51.17049,4.1440005,5.554954954954955,3.9
Fast 2 Go,51.0284808,4.4782928,5.558450704225352,3.5
Snack de Hoek,51.2247607,4.4548562,5.5630434782608695,3.9
Snack Papay,50.8367019,4.3808233,5.565217391304348,4.5
Baguette & Salad Bar,50.8779438,4.6987789,5.575462962962963,3.5
Snack Pamukkale,51.0625456,3.6986091,5.5946428571428575,3.9
Snack Bruxelles,50.8686346,4.374455,5.595238095238095,0.0
Snack Joker,50.8634042,4.3774531,5.6128318584070795,4.3
Zem Zem,51.3156801,3.1292305,5.61651376146789,4.8
Frituur 't Kroontje,51.2329817,4.4531407,5.622413793103449,4.1
SixtyOne,51.1687661,3.8579406,5.632335329341317,4.4
Eric's Burger & Streetfood,50.8577828,4.3642117,5.640287769784172,4.1
Pitta Roos,51.1987497,3.1889283,5.646875,3.3
Snack Tosi,51.0408567,3.7253756,5.676562499999999,4.4
Bursa Kebab,51.060844,3.701226,5.67741935483871,4.1
Snack Istanbul,50.7170552,4.6070235,5.680769230769231,4.3
Snack Merode,50.8386936,4.3977664,5.6875,0.0
Snack les 2 Frères,50.8572749,4.3730178,5.693203883495145,4.4
Snack Taksim,50.8669161,4.3761611,5.693457943925234,4.2
Snack la Cambre,50.8012434,4.3735706,5.705357142857143,4.9
Frituur De Mijn,51.0730633,5.2227106,5.709655172413792,4.0
Snack Dem's,50.8278274,4.3016666,5.713986013986014,3.8
Snack 2500,51.1313923,4.5674943,5.726829268292684,4.5
Kadirga,51.0391626,5.3002396,5.7298850574712645,4.6
Snack Au Lunch,50.8888894,4.3389537,5.731847133757961,4.1
Eethuis Royale,51.21175,4.4283533,5.747222222222223,4.1
Snack Saint-Guidon 2012,50.8349281,4.3061951,5.78048128342246,3.7
Route 46,50.925087,3.9524026,5.783116883116883,4.5
Snack Boss,50.9420067,4.0351025,5.79,4.5
Tayba,50.8761536,4.3783777,5.790697674418604,3.4
Snack Cherif,50.8774576,4.3489332,5.7923728813559325,4.4
Gül Food,50.8479888,4.3099943,5.813157894736842,4.4
Choco Pitta,50.8669031,4.3582998,5.8188524590163935,3.9
Snack Tour et Taxi,50.8635228,4.3443448,5.830985915492958,4.1
Snack neerstalle,50.8078851,4.3164883,5.845522388059702,4.5
Snack Au Bled,50.8701326,4.372873,5.848484848484849,3.8
MARHABA,51.0435964,3.9117998,5.860975609756098,3.9
Snack Twins,50.8025734,4.3411907,5.869411764705883,4.6
La Medina Chez Houssin,50.8459048,4.3425521,5.872881355932203,3.1
Snack Pizzeria Izmir,50.9287575,4.4225308,5.878832116788321,4.9
Snack Melike,50.8566814,4.3277586,5.8828571428571435,4.4
King Potato,51.1341236,4.3864343,5.89051724137931,4.5
Snack Bockstael,0.0,0.0,5.920496894409938,4.3
Nino Grill,50.8364771,4.0263442,5.935714285714286,3.5
Snack 4 You,50.8309809,4.4520538,5.942857142857142,3.6
Sali Kebap,50.7802657,5.4635312,5.951807228915663,3.0
Antwerp Kebab,51.2219602,4.4134255,5.9787878787878785,3.5
Snack Araff,50.864184,4.3659068,5.980208333333334,0.0
Burger House,51.061226,4.361404,5.995238095238094,3.5
Snack Grill Pizza Asalam,50.9294474,4.4278192,6.0045714285714284,4.8
Snack Resto Istanbul,50.9118822,4.4350511,6.010687022900764,4.4
De Hoek Van Marrakech,50.9092739,4.3519413,6.025477707006369,4.2
Madina food,50.856793,4.3752124,6.033720930232558,4.7
Snack Frituur Hanoodi,50.967342,3.9873674,6.048255813953488,4.1
Suslu by Tuna,50.8731519,4.3869141,6.055,4.6
Best Grill,50.8355777,4.2999137,6.060784313725491,3.4
Leo's Bakkerij & Kebab,51.117792,5.2601209,6.063701923076923,4.5
Lunch Factory,50.8364735,4.3392771,6.069540229885058,3.8
Pitta Moorselbaan,50.9421771,4.0466792,6.085064935064935,4.3
Mc'Döner'S,50.8144757,4.3658038,6.096103896103896,4.8
Sila Snack & Pide,51.1872698,4.4285447,6.101764705882353,4.1
Lunch Halte,51.2437152,4.4433173,6.115909090909091,4.1
Snack Gold,50.9302208,4.4264047,6.12,4.4
Snack Simonis,50.8635911,4.3301211,6.126388888888889,3.0
Snack Ailnor,50.9494353,3.1313294,6.13939393939394,4.2
Snack Pizza City,50.9095302,4.354658,6.155172413793103,4.1
Istanbul Snacks,50.9755102,5.4706466,6.160162601626016,4.4
Akym Food,50.8769268,4.3792967,6.166666666666667,0.0
Snack Des Frères,50.8714998,4.3839557,6.169160839160839,3.3
Solav Kebab,51.2189946,4.4202459,6.170370370370371,3.5
Cicek kebab,50.8332944,4.3285403,6.181818181818182,3.7
Pita Vrede,50.9387904,4.0332502,6.203030303030303,4.8
Snack Twenty Six,50.8186283,4.3792999,6.203428571428571,3.0
De Nijl 1,50.8756293,4.7001928,6.2153284671532845,3.0
Snack de la Famille,50.8361415,4.3154125,6.225287356321839,3.0
Pitta Corner,51.3152888,3.1271573,6.225872093023256,4.8
Pacha Kebab,50.8255249,4.2977704,6.238095238095238,4.3
Snack Denderleeuw,50.8922625,4.0729595,6.244660194174757,4.4
Pitta Dorp,50.870853,4.0181446,6.2476744186046504,4.8
Pitta Number 1,51.3125245,3.1272587,6.269655172413793,4.3
Pitta 03,51.0386761,3.7102649,6.271527777777778,4.7
Marrakech,50.8703965,4.3717317,6.27979797979798,3.7
Pitta Kervan,51.0410855,3.3964371,6.283653846153846,4.3
Pitta Melissa,51.0372872,3.7404987,6.286458333333333,3.8
Snack Dekan,50.8800921,4.3296928,6.286486486486486,4.9
Snack & Pizza de Oase,50.9310813,4.4249935,6.297540983606557,4.5
Only Kebab,51.22128,4.4026248,6.3,3.3
Pitta Destelbergen,51.0587544,3.8182144,6.3048245614035086,4.0
Snack Medo,51.2076189,4.4280825,6.316860465116279,4.1
La Maison du Kebab,50.8354388,4.2999718,6.322413793103448,3.7
Snack Best Grill,50.9142631,4.1931411,6.324747474747475,3.7
Petit palais,50.8567628,4.3729156,6.33963963963964,4.0
Pitta & Grill ‘T Parkske,50.8456491,3.6096502,6.3428571428571425,4.5
Pakistan Royal Food,51.2337942,2.9164435,6.34375,4.3
Snack Royal,51.2127031,2.8822633,6.352348993288591,4.3
Snack Houwaert,50.8527175,4.373779,6.357758620689655,4.1
Kebap Food,50.8739395,4.3145004,6.3677215189873415,3.9
Pita4you,0.0,0.0,6.390243902439025,4.4
Pitta Snack Waarschoot,51.1516652,3.6077882,6.393425925925925,3.5
Durum Express,50.8475034,4.303581,6.397826086956522,3.5
Pitta Gizem,50.9401098,4.0432019,6.404827586206896,4.6
Pitta Bon Appetit,51.2318024,2.9144097,6.410112359550562,3.9
Aras Kontich Snack,51.1326595,4.4462483,6.413275862068966,3.5
Snack Wielemans,50.8243939,4.327402,6.416083916083916,4.3
Marinah,50.8349879,4.305918,6.43859649122807,2.9
Tradita,51.1605694,4.1507192,6.439823008849558,4.3
Pitta Yasmin,51.0712026,3.7095474,6.467889908256881,4.3
Pitta Alpay,51.1076122,3.9004134,6.476638655462184,4.5
Snack Bodrum,50.882133,4.4725341,6.480916030534351,3.7
Snack Chez Zeki,50.8548619,4.3673975,6.4828947368421055,4.7
Snack Hakan,50.8686357,4.3122373,6.4850393700787405,4.1
Snack Délice Halal,50.8039908,4.3364598,6.517435897435898,4.2
Layana Food,51.244299,4.4447138,6.520731707317074,3.4
Snack Mirvan,50.8352676,4.3084661,6.5212871287128715,3.7
O'Couscous,50.7951364,4.3212211,6.5249999999999995,3.7
Eldina Snack,51.2409064,4.4391414,6.530434782608695,4.8
La Rose,51.2180206,4.4181578,6.534246575342466,0.0
Couleur Safran,50.7871651,4.3295849,6.56461038961039,3.8
Snack L'oppem,50.8594957,4.5141147,6.580487804878048,4.1
Pitta Sena,51.037505,3.714077,6.584776119402985,3.3
Andromeda,51.0402796,3.7254715,6.586428571428572,4.7
NAZ Kebab,51.2162787,4.3995765,6.60514705882353,3.4
Snack Bodrum,50.9285905,4.4218529,6.607407407407408,4.9
Snack Au Petit Creux,50.8518175,4.3850787,6.612612612612613,4.0
Dunya Döner,51.2220515,4.463011,6.61923076923077,0.0
Best Grill Molenbeek,50.8574331,4.3105647,6.622147651006712,3.5
Kebab Company,50.8813682,4.7156895,6.641304347826087,3.8
Almina,51.1785685,4.3587163,6.672661870503597,4.1
Reet Grillhouse,51.1148621,4.3898315,6.6782352941176475,2.8
Frituur L'Orient Express,50.7315003,4.2309004,6.682978723404255,4.1
Melita,50.890503,3.0607631,6.686746987951807,4.7
Pitta Magic,50.8612862,4.3716419,6.691379310344828,3.5
Miro's snack,50.8716804,4.4002252,6.712389380530974,4.1
Kebab Leuven,50.8803556,4.7055925,6.713483146067416,3.2
Snack Top's,50.818046,4.3929502,6.730555555555555,4.5
Posh Kebab,51.2334662,2.9214644,6.731927710843373,4.2
Ath Grill,50.6284812,3.7743981,6.73986013986014,4.2
Pizza Pita Delta,51.0576267,3.7071178,6.755208333333333,3.5
O Saveurs,50.8582362,4.3400189,6.756302521008403,4.0
Snack Dayi,50.909688,4.193773,6.76198347107438,4.1
Ronse Grill,50.749761,3.5969296,6.776119402985074,3.6
Alex Grill House,50.9115883,4.1956724,6.782332155477032,3.3
Pitta Mr. Food,51.1542688,3.2375995,6.785175879396985,3.8
Miracle,50.8306611,4.3904781,6.78731884057971,3.9
Kokorecci Antwerpen,51.2021287,4.3928709,6.809230769230769,1.8
Breughelhof Cafe Bistro,51.1764672,4.3669013,6.811458333333333,4.3
Atlasresto,50.8595094,4.3623686,6.85632183908046,4.1
Amjam,50.867429,4.2936095,6.864183673469388,4.4
Pitta Diana,51.185037,3.5638525,6.86578947368421,4.0
Pita Ephesus,50.6641724,5.5366125,6.875147928994084,3.9
Snack Sympa,50.8365798,4.3661102,6.88728813559322,3.9
Kalender Frietjes,50.8678838,4.4504362,6.8875,3.7
Snack Corner,51.0702663,4.036278,6.888349514563107,4.8
El Baraka,51.2222301,4.4356682,6.8999999999999995,4.2
Hakko,50.8580323,4.3188731,6.902047244094488,0.0
Snack Gab & Dav,50.8653653,4.3885953,6.9064,2.6
Hapjes Time,51.3214973,4.9371254,6.913333333333334,3.9
Le 1050 Snack,50.8289445,4.3726359,6.913461538461538,3.7
Snack Derya,50.848743,4.3189361,6.919333333333333,3.9
Resto Snack Istanbul,50.920698,3.2155599,6.924022346368715,3.5
Snack Felix,50.8508108,4.3919207,6.925619834710743,3.4
Snack Tip Top,50.8133607,4.3386547,6.942477876106195,4.4
Snack O'Laeken,50.8779263,4.3477112,6.955555555555556,0.0
Snack-Grill Berchem,51.1976017,4.4242343,6.961057692307692,3.3
Snack Felix 2,50.8478045,4.3982331,6.971544715447155,4.1
Frituur 't Bekske,51.0407393,5.2817897,6.977931034482759,4.5
Snack House,50.8709662,4.2639294,6.984892086330935,4.5
Pitta Mersan,51.1038131,3.9879605,6.991758241758242,4.3
Q'bap Gent,51.049376,3.730604,7.004347826086956,4.0
Pita Babylon,50.9393891,3.1221289,7.0181818181818185,4.6
Pitta Palace,51.0286668,4.4803971,7.0251396648044695,3.2
Food Like Home,50.8004216,4.3173681,7.027777777777778,3.3
Istanbul pizza & pita,51.2798399,4.4187852,7.034883720930233,3.9
Snack Centraal,51.2145585,4.4351753,7.036697247706422,3.5
Resto Snack Zen,50.9276312,4.4331812,7.042735042735043,4.0
Poker Friet,50.9865354,4.7810916,7.04484052532833,4.1
Snack Ot's,50.8709745,4.375243,7.045977011494253,4.5
Restaurant Medina,51.1867237,4.3865355,7.050724637681159,0.0
Cook Mazi,51.027973,4.4791218,7.068796992481203,3.9
Pizza Bella Pitta,51.189492,2.8307733,7.074999999999999,4.3
Can Snack,50.9429437,4.0288648,7.086363636363636,3.9
Snack Alsemberg,50.8156131,4.3400529,7.092105263157895,3.7
Pitta Kebab Sude,50.9998937,3.7501562,7.1016260162601625,3.4
Panini & Grill,51.0404918,5.3049018,7.112698412698412,4.7
Bosphorus,51.1038132,3.9928181,7.116528925619835,4.4
Pitta Araz,50.8698006,3.6220167,7.1454545454545455,4.3
Burger Kofte,50.9886723,5.6955838,7.174509803921568,5.0
Koz Kebap,51.226234,4.425389,7.176470588235294,4.2
Damas Veneto,51.2207499,4.4266288,7.186349206349207,3.4
Ali Baba,50.8788873,4.7000875,7.187603305785124,3.7
Snack Mutsaert,50.9013694,4.3608428,7.228915662650603,4.7
Grill & Service,50.8820908,4.713554,7.232203389830508,4.0
Pizza Punto,50.8474702,4.8209022,7.233093525179856,4.1
Allo Pizza,50.7712832,3.0456823,7.236434108527132,3.9
Amari's,51.215942,4.3292193,7.254166666666666,3.8
Snack Istanbul,50.866702,4.3775992,7.256451612903225,4.2
Pizza Diamond,51.0017346,3.751311,7.26546762589928,4.3
LivaKebab,51.2026936,4.3901947,7.267857142857143,4.5
Arabesque,51.2076757,4.465059,7.295862068965517,4.2
Ton Ton Snack,51.0415591,3.72555,7.33125,3.9
Snack Arc en Ciel,50.8714801,4.4008113,7.332142857142857,3.7
Pizzeria Dilan,50.8836767,4.7197713,7.35546875,3.5
Topkapi-Pitta Grillhouse,51.132175,2.6723878,7.355555555555555,3.9
Iran Chicken Grill,51.2038924,3.2084074,7.3625,4.0
Pitta Seker,50.954109,4.0630978,7.373584905660378,4.9
Snack Tarik,50.8701943,4.3721496,7.375675675675676,4.1
Snack Zomergem,51.1184148,3.5611182,7.3808510638297875,4.1
Snack Pizza Bodrum,50.90637,4.207182,7.390151515151516,3.7
Pitta Melita,50.9460015,3.8041969,7.403061224489796,2.6
Snack O Tac,50.8695437,4.3328935,7.420279720279719,4.5
Toronto Pizza & Burger,50.7709132,3.8756524,7.428217821782178,4.0
New City,51.0211834,5.4712118,7.433333333333334,3.8
Pittazino,50.931698,4.0362616,7.478048780487805,4.7
Pita Muradim,51.2076892,4.3887578,7.487610619469026,4.3
Maison Grill,50.8578394,4.319434,7.489864864864865,3.5
Pasta Pitta Derik,50.941807,4.044479,7.505521472392639,4.3
Sultan Kebap Geel,51.1666658,4.9889729,7.510526315789473,3.1
Anatolia,51.0280462,4.0987641,7.53781512605042,3.3
Atlas Lunch en Grillroom,51.199245,3.811369,7.541156462585034,3.9
Snack Aalst,50.9399256,4.0258409,7.548333333333333,4.1
Frituur Cité,50.9811288,5.4923153,7.553307392996109,4.1
Pitta Number 1 Bredene,51.2486088,2.9667543,7.573404255319149,4.7
You You,50.9434713,3.9847027,7.592380952380952,3.9
Frituur brother's,50.8974472,4.4350421,7.6017964071856285,4.4
Snack Grill Dansaert,50.8521231,4.3439342,7.610509554140128,3.4
Pizza Roma,50.9236701,4.692179,7.62054794520548,3.8
Don Sako,50.7526979,5.0808884,7.623711340206185,2.7
Snack Antalya,51.0286715,4.4845363,7.625510204081633,4.2
't Stad Kebab,51.2124675,4.4076701,7.636363636363637,3.9
Pitta House 2,50.868915,4.3112619,7.650632911392405,4.7
Pitta Melita,50.9226945,3.4458184,7.651376146788991,3.9
Pitta Canan,51.0616385,3.700181,7.6575,4.4
Eatpoint,51.0297439,5.2592668,7.674747474747474,4.1
"Dinner&You Burgers, Grill & More",51.170444,3.8599658,7.680940594059406,4.5
Pitaverne,51.2023183,4.4855979,7.690740740740741,4.2
Top Snack,51.161282,4.669973,7.690839694656488,4.3
Pizzeria Saray,50.938774,4.619825,7.704,4.8
Pizza Dino 21,50.8246451,4.5132418,7.710344827586207,4.4
Pitta Can,51.062187,3.7498953,7.734146341463416,3.6
Merdin 3,50.9925856,4.7061002,7.752717391304348,4.3
Pizza Grens,51.4447886,4.9250641,7.758741258741258,3.8
Eethuis Zemzem,50.8895158,5.6507451,7.762878787878788,4.7
Pitta Reco,51.1892163,3.2116095,7.789308176100629,4.1
Pizza Pitta Lara,50.8689952,3.8140589,7.7976190476190474,4.2
Pita Pizza Pyramide,51.0847842,3.4483041,7.811538461538461,4.5
Chicken Center,51.2194223,4.4189822,7.821063829787233,4.3
Frituur-Grillroom Dalia,50.8605512,5.6178644,7.8475708502024295,4.6
Pizza Zandhoven,51.2143253,4.65802,7.867741935483871,4.6
Naroj,50.8932578,4.7740197,7.883211678832117,4.8
Pizzeria Grillroom Dudi,51.0958982,5.7928862,7.897435897435898,3.4
Mam's burger,50.9008109,4.3607925,7.926859504132231,4.3
Amon,51.2950518,4.4892408,7.930973451327434,3.7
Eetcafe Antep,51.3915605,4.4668839,7.944827586206896,3.9
The Vend,51.207916,4.392708,7.965625,4.4
Pizza Metin,50.8964317,4.8248638,7.973684210526316,4.0
Post'a Kebab,50.9074031,4.2053163,7.975206611570248,4.1
Cappadocië,50.9658811,5.5022231,7.990909090909091,4.1
Turkoase,50.9863669,5.0487732,8.0,4.3
Kebap Nisa,51.1982186,3.2193108,8.053846153846154,4.5
Pizza Pita Zottegem,50.8684049,3.8137421,8.079141104294479,4.3
HB Resto,51.0514672,3.662672,8.083333333333334,4.7
Snack Dylan,50.8600219,4.4176894,8.08783185840708,4.8
Selale Pitta & Grill,51.0638718,3.7095352,8.106666666666666,4.2
Snack Bodrum,50.84294,4.4083082,8.10873015873016,3.9
Sint-Antonius,51.228675,5.4325213,8.11038961038961,2.9
Pita Sfinx,51.2019604,4.3440983,8.114035087719298,4.0
Eethuis Taha,51.080901,4.430953,8.114285714285714,4.6
Izmir Snacks,51.2545203,5.4785896,8.125,4.8
Nazar Kebap,50.8071283,4.9383136,8.148255813953488,3.1
Chicken World Gent,51.0416463,3.7297433,8.156944444444443,4.8
Nazar Side,50.8096291,4.9320733,8.157458563535911,3.3
Mezopotamya,50.8204079,3.2843159,8.161971830985916,3.7
Snack Gerard,50.8405952,4.4004032,8.167226890756302,3.3
Kebab House,51.1021044,2.5882683,8.186170212765957,4.6
Star Kebab,51.3216802,4.9367899,8.206140350877194,4.1
Moni,51.2054624,4.4728745,8.218181818181819,3.7
Kebab@Home,50.9369842,4.0271876,8.2375,2.7
Pizza Stop,51.0388277,3.7465613,8.239423076923076,4.1
Istanbul Eethuis,51.2190487,4.4193643,8.245348837209303,3.2
Broodjescorner,51.3153417,4.9499194,8.251228070175438,3.9
Donerix,51.2489808,4.4543133,8.252173913043478,3.7
Kaya Pitta,0.0,0.0,8.263698630136986,2.1
What the Kebab,51.219982,4.4150385,8.279347826086957,0.0
Snack Thieffry,50.8307916,4.3998691,8.279569892473118,4.9
Best of Kebap & Pizza Dender,50.8920932,4.0721603,8.298076923076923,4.2
Tasty Food Vesalius,50.8752133,4.7079149,8.305,3.5
Cesar Pizza Snack,51.042915,3.7373457,8.315436241610739,3.8
Bodrum Palace,51.224524,4.4169147,8.320114942528736,3.6
Snack Aydin Genk,50.9635393,5.500285,8.353982300884956,4.5
Pizza Midas,51.2080947,3.4510793,8.356934306569343,4.4
Ada Grill & Burger,50.8465692,5.6941176,8.370558375634518,4.1
Ali Pizzahuis,51.3015694,4.5703876,8.383663366336634,3.7
Snack Express,50.890575,4.471298,8.385714285714286,4.0
Orient Lanaken,50.8947108,5.6650737,8.395238095238096,4.3
Trend Kebab & Pizzeria,51.0940817,5.7923279,8.40561224489796,5.0
Grill Bar - The Shake,50.88357,4.081533,8.429824561403509,3.0
Soyy Eethuis & Gelateria,51.05137,5.239609,8.4315,4.3
Sewar Snack-Resto,50.8822221,4.7133678,8.448924731182796,3.4
Ali Baba,50.77303,4.5392365,8.449707602339181,4.3
Food King,50.8455292,4.2840575,8.456407766990292,4.1
Melita Original,50.9050631,3.5288347,8.471176470588235,4.4
Ali Baba Restaurant,51.219015,4.4199488,8.47391304347826,3.8
Pizza Pita Grillroom Milano,51.3141839,3.3022606,8.481203007518797,4.3
Sude Snacks,51.1310279,5.4576418,8.507142857142858,4.1
Chef Tielen,51.2438076,4.8955912,8.51010101010101,3.1
Istanbul,50.8788052,4.7001891,8.53467741935484,3.6
Pizzeria Alma,50.87551,4.7301188,8.55,4.1
Pitta & Pizza Antalya,51.2114476,4.251832,8.55566037735849,4.2
Dunya Kebab,51.11452,4.866375,8.594904458598727,3.8
Mixor Kebab,51.2192348,4.4203085,8.59927536231884,3.4
Pizzaria Mr. Sebino,51.2251981,3.2314266,8.61170731707317,3.8
Snack Dodo,51.0304194,3.8018376,8.645720720720721,3.6
Street Kap,50.853887,4.3537965,8.649999999999999,4.4
Italian Delights,50.9493699,3.2893233,8.654109589041095,4.1
Place 2 Eat,50.9483796,3.1296242,8.701574803149606,3.8
Pita & Pizza Ela,50.8728694,3.1824152,8.716346153846153,4.4
Kebaba,51.232254,5.331347,8.720725388601037,4.5
Wemmel Grill,50.91032,4.3009225,8.728297362110311,4.0
Mira,0.0,0.0,8.734177215189874,4.7
Eethuis Musti,50.8221402,4.8914991,8.762820512820513,4.4
Pizza Monza,51.2041539,4.5231233,8.76535433070866,3.5
Napoli Pizza Grill,50.9083137,4.6756146,8.810928961748635,4.0
Kebap - Pizza De Brug,0.0,0.0,8.811111111111112,5.0
Merdin 1,50.8841354,4.7230861,8.82882096069869,3.5
Mila Palace,51.2456912,4.4478081,8.831012658227849,3.7
Liya Kebab & Pizzaria,51.3320877,4.3652936,8.845029239766081,3.6
Le Kasseria,0.0,0.0,8.849056603773585,4.6
Snack Aydin Beringen,51.0748681,5.2200034,8.864197530864198,4.8
Magic Kebap-Kessenich,51.1522604,5.8106697,8.873584905660376,4.4
Duffelse Kebab,51.0954102,4.5099468,8.876966292134831,3.2
Snack Georges Henri,50.8437401,4.4126857,8.893814432989691,4.7
Lara Eethuis,51.003218,4.1255906,8.896527777777777,4.4
Pitta Izmir 2 Ertvelde,51.1802528,3.7467185,8.924747474747475,4.0
Rana,51.1736447,5.5797481,8.925149700598803,4.1
Miss Pizza,51.2162709,4.2514887,8.925714285714287,4.5
Snackbar Tasty,50.9945976,4.7097848,8.936708860759493,3.6
Snack Overpoort,51.039307,3.725667,8.941302521008403,3.1
Ali Baba,51.0185386,4.4824376,8.955038759689923,4.4
Osman Kebab Pizzeria,50.817049,5.1770964,8.962234042553192,4.4
Eetcafé Ossendrecht,51.3937523,4.3295408,8.967836257309942,3.6
Pizzeria Luigi,50.8893431,5.2900713,8.9734375,4.4
The Daily,51.212832,4.2564012,8.988755980861244,3.3
Lommelse Kebab,51.2261487,5.3141093,8.996350364963504,3.5
TAT,50.9263663,5.3399257,8.997590361445782,4.4
Pizzeria Sipan,50.9884214,4.7820077,9.002958579881657,4.7
Loco Pizza,50.8784156,4.699806,9.003921568627451,2.2
Pizzalicious,51.017464,3.9579873,9.004065040650406,3.9
Pitta de Kroon,50.949387,4.04096,9.01156462585034,4.9
Ali Baba,51.1344772,4.5701273,9.029943502824858,3.7
HKebab Pizza,50.8055699,4.1549889,9.03581560283688,4.2
Ali Baba,51.0763479,4.721808,9.038518518518519,4.6
Pizzo,50.998208,4.1295875,9.048850574712644,4.4
Nasip,50.8888527,5.527032,9.051724137931034,4.5
New Maan Pizza & Wok & Burger,50.8780503,4.7196363,9.065555555555555,3.6
Kebap Mustafa,50.8926649,5.1141853,9.07181818181818,4.7
Maestro,51.0033413,3.8004919,9.078947368421053,4.0
Pizza Maestro Belsele,51.14608,4.0850115,9.080733944954128,4.6
Mehtap,51.22145,4.4618373,9.088,4.1
Eethuis Star,50.9477982,5.344999,9.10295566502463,4.2
Kral Snacks,51.1750392,5.1355752,9.10603448275862,3.8
Snack Maya,51.2016103,4.4334429,9.107758620689655,3.0
Maara Uno,50.8396305,5.0213554,9.12565445026178,4.3
Big Bite,51.2028147,4.4838906,9.127235772357725,3.6
La Dany,51.2069524,4.4150948,9.129885057471265,4.0
Pizza Grill Huis,50.9306343,4.7245528,9.134810126582279,4.6
Adana Kebab,51.0290669,4.4883672,9.135576923076924,3.5
Twins,50.7738295,4.886823,9.136513157894736,4.3
Dar Es Salaam,50.8505236,3.287144,9.137037037037038,4.3
Mamma Mia,50.8133081,5.6691349,9.147540983606557,3.9
King Kebap,50.9770486,4.6345681,9.161818181818182,3.2
Döner Kebab Anatolia,50.8067955,5.2858685,9.168041237113401,4.1
Pizza Point,51.2197869,4.3823975,9.172333333333333,4.3
Pasa Snack,51.1654451,4.989585,9.197026022304833,3.9
Campus & Fratelli,51.2250618,4.4074559,9.200680272108844,4.4
't Hoekske,50.7841913,5.474018,9.213793103448275,3.0
Best Grill,50.7710849,3.8828792,9.218959107806691,3.8
Number One Snack,50.9453622,5.2611201,9.221621621621622,4.1
Oklava,51.153099,5.392288,9.221818181818183,3.9
Sam Kebab,50.987235,4.8388002,9.23030303030303,4.3
Grill Mix Centrum,51.050273,3.730271,9.272,3.8
Zelem Pizzeria,50.9780074,5.1217436,9.278260869565218,4.7
Snack Aydin Ham,51.1045326,5.1772193,9.293103448275861,4.4
Antwerp Pizza - Pasta - Kebab,51.2198579,4.4027308,9.30860927152318,2.7
Orontes,51.0318177,5.3730854,9.310077519379846,4.6
Pizza Marmaris,51.2469449,4.4435028,9.325301204819278,4.1
Pizza Desperado,50.841038,4.834623,9.372549019607844,4.2
Pizza Pasta Pita Mazador,51.21871,4.424192,9.37551724137931,3.5
Magic Food,51.0950361,4.1359653,9.3764,4.6
Elif Grill Huis,51.1706303,4.4492091,9.39245283018868,4.2
Dilsu Pizza Pitta,51.0599073,4.3605483,9.418421052631578,3.4
Istanbul,51.1609827,4.9906752,9.443965517241379,3.6
Hit Kebab,51.2543011,4.0884489,9.457055214723926,3.9
Antalya Grill,51.2245941,2.9087838,9.466101694915254,3.8
Anatolie's,51.1166965,3.7142608,9.475984251968503,4.1
Efes Geetbets,50.8901089,5.1147702,9.496835443037975,4.5
Anatolia,50.986765,5.1927006,9.5,4.1
Pizza Pitta Melissa,51.0661099,4.034365,9.515625,3.5
Sfinx,51.3221189,4.9524556,9.528301886792454,4.4
Resto Simke,50.733166,5.2091265,9.530434782608696,3.7
Exprezz Pizza,51.0248848,3.7726946,9.531862745098039,3.7
Murat Pita Pizza Pasta,51.3519864,4.3974537,9.537117903930131,4.3
Ediz Pizza-Pita,50.9911311,3.8307237,9.537267080745341,4.1
Papi's pizza,50.9712916,4.1865574,9.548226950354609,4.3
Pizza Ti Amo,50.8745392,4.6914768,9.570980392156862,3.3
Pizza Ozy,51.1325761,3.6796668,9.573770491803279,3.2
Adak Kebab,51.250926,5.5421495,9.574866310160427,4.2
Eethuis familia,51.219894,4.2795415,9.576056338028168,3.8
Yum Smaak,51.34099,3.2888477,9.576068376068378,0.0
Sultan,51.018772,4.483109,9.583700440528634,3.0
Fresca,50.8448432,3.6028256,9.591666666666665,4.3
Hasseltse Kebab,50.9301263,5.3318256,9.593264248704664,3.3
Chef Eethuis,50.9912688,5.3688786,9.6,4.4
Eethuis Florya Lommel,51.2321067,5.3469081,9.600492610837438,3.6
Orient Overpelt,51.2119421,5.4230823,9.606060606060606,4.2
Nur Kebab,50.8861168,5.5289695,9.60689655172414,4.3
Ali's Eethuis,51.0864141,4.3285395,9.60730593607306,3.1
Efes bij Carlos Niko,50.988972,4.840586,9.607881773399015,4.3
Ela Kebap,51.1318678,5.0810792,9.626792452830188,4.7
Ümit Pizza Kebab Grillroom,51.030933,5.3715848,9.628834355828221,4.8
Bel Kebab,51.0588082,5.2733333,9.636986301369863,4.6
Njam Njam Pizza,51.0867384,3.4484218,9.638248847926267,4.1
Pizza Aurelia,51.071333,3.7306784,9.641935483870968,3.1
Tokcel,51.0921674,4.0255789,9.65778947368421,4.7
Cappadocia,51.2180687,4.419398,9.658450704225352,4.1
Pitta Point,50.8032244,5.5709341,9.674814814814814,2.8
"Efes Grillhouse, Kebab & Pizzeria",50.9798127,5.0549133,9.678362573099415,4.6
Istanbul Resto Snack,51.1321422,2.7512009,9.68018018018018,4.3
Istanbul Grill Huis,50.9909538,4.8407489,9.681016949152543,4.0
Oba Grillhuis,51.1162617,5.2620302,9.691119691119692,4.2
Ustun Kebab,51.0241203,5.3752994,9.727727272727273,3.6
Pizza Pita Pala,51.1701238,4.3120615,9.73728813559322,4.2
Brasserie Shammy's,51.1793005,4.3779457,9.75207100591716,4.2
Sahin Eethuis,51.18434,4.9846778,9.764705882352942,4.5
't Kebabske,51.0258352,5.3753281,9.777037037037037,4.5
Sardinië,51.1344736,4.5655313,9.778703703703703,3.5
Pizza Milano,51.0994106,4.2343152,9.797272727272727,4.1
Pizza Palace Fastfood,51.0017551,3.8777948,9.799909090909091,3.4
Hever Kebab,50.992436,4.555168,9.800862068965518,3.9
Grill Metin,50.8066648,4.9394094,9.803571428571429,3.7
Schaffense Kebap,50.997961,5.077685,9.81055900621118,4.6
Ali Baba Stalenstraat,50.9935263,5.5186807,9.819444444444445,3.9
Cizbiz Donerland,51.227137,4.4502062,9.820421052631579,3.8
Nomak Pasta N' Tenders,50.8983064,4.3591054,9.828378378378378,3.9
Snack Marmara,50.8536962,4.3882244,9.838870056497175,0.0
Ali Baba Vennestraat,50.9802545,5.4919544,9.845132743362832,3.9
Eethuis Dalin,51.1811525,4.8300739,9.871644295302014,4.1
Grillhouse Kusadasi,50.9311393,5.5741936,9.874853801169591,4.7
Pizza Pamukkale,51.1272762,4.2120871,9.875413223140495,3.8
Ali Baba,51.0782718,5.2187304,9.8796992481203,4.3
Eethuis Nazar,51.093322,5.0611908,9.898412698412699,4.0
Pizzeria Kebap Selin,50.8325241,5.1042698,9.912935323383085,4.9
Konak Pizzeria Doner Kebab,51.1763368,5.8374658,9.916666666666666,2.8
Eethuis Florya Neerpelt,51.2317153,5.4469011,9.917571428571428,3.9
Wow Pizza,51.303104,4.7355146,9.925174825174825,3.6
Pizza Efe Westerlo,51.0875698,4.8717344,9.960526315789474,4.1
Orient Diest,50.9800088,5.0445122,9.960892388451445,4.0
Cairo One,51.2146721,4.2533856,9.978497409326424,4.8
Anka Kebab,50.9073594,5.0596721,10.0,4.3
Pizza Efe Olen,51.1433937,4.8599987,10.008108108108107,4.0
Venus 7,51.0874035,5.2196722,10.014285714285714,3.9
Efes Mol,51.1873243,5.1196074,10.01866028708134,4.2
Heide,51.0306176,4.7567441,10.024271844660195,4.1
Eethuis Istanbul,51.3141468,4.9438156,10.025773195876289,3.9
Pizza Hanoo,51.0021956,3.8813768,10.038512396694216,4.4
Heist Kebab,51.0756262,4.7252205,10.045454545454545,4.5
Qivvi,51.161534,4.6696033,10.047656250000001,4.7
Resto Borsa,51.18893,4.4331958,10.05026455026455,4.1
Eetboutique Kaya,50.9075832,5.4189421,10.055,4.6
Doy Doys,51.1968244,4.4580891,10.068382352941176,4.3
Amon,51.1829676,4.3842068,10.069277108433734,3.9
Eethuis Mehmet,50.8487033,5.4899992,10.069277108433734,4.7
Venus 8,51.055254,5.2738908,10.079136690647482,4.6
Pizza Efe Hulshout,51.0759414,4.7886443,10.080810810810812,3.5
Rozalin Kebab Pizza,51.351267,4.6441514,10.087096774193549,4.0
Aly Baba,51.4678223,4.4682463,10.089506172839506,3.2
Baskent Tessenderlo,51.0673327,5.0875676,10.092896174863387,3.7
Eethuis Bij Hakan,51.0347288,5.729146,10.095238095238095,4.3
Pitta Pizza Ludwig,51.1325761,3.6796668,10.098522167487685,3.6
Noumidia Resto,51.323803,4.947664,10.121561338289963,4.1
Midyat,51.0006958,4.8298804,10.132743362831858,4.4
Pizza Pita Ege 2,51.0555994,4.2056305,10.138983050847457,3.9
La Bella,51.22917,5.4319444,10.146013986013987,4.1
Aladin,50.9330042,5.3268261,10.149302325581395,4.3
Beyzade,51.2245014,4.4167564,10.15125,4.0
Bosphorus,50.8753181,5.3082716,10.158214285714285,3.9
Pitta Bodrum,51.0426523,4.104073,10.165822784810127,4.4
Pizza & Kebab Zeebrugge,51.3131951,3.1876991,10.16978417266187,4.2
De Mijn Kebab,51.0372686,5.3310157,10.177192982456141,3.8
Baskent Averbode,51.028309,4.9815332,10.200636942675159,4.5
Turkische Food,50.852814,2.893423,10.203239436619718,2.2
Kebabstore,50.929356,5.4626102,10.222972972972974,4.6
Pizza Company,51.21308,4.257836,10.229865771812081,1.7
Florya Kebab & Pizzeria,51.019872,5.4752219,10.230395480225988,3.3
Pizza Lacasa,51.127893,4.2160941,10.230737704918033,3.9
Euro Kebab-Pizza,51.027906,5.5321544,10.246913580246913,4.5
Musty Kebab,51.1261817,5.358197,10.260591133004926,4.4
Eethuis Milas,50.9886636,5.6937437,10.264864864864865,3.9
De Chef,51.0524419,4.7776624,10.271794871794873,3.9
Eethuis Taksim,50.8042765,5.5746671,10.279891304347826,4.1
Sultan Testelt,51.0184101,4.9488446,10.285310734463277,4.2
Anatolia 23,51.2514972,5.5466132,10.285714285714286,4.6
Huzur Pizzeria Kebab,51.1447208,5.7423493,10.298194945848374,3.1
Pizzaria Gunther,51.117996,4.656598,10.303763440860216,4.6
Kebab Time,51.226,5.3141255,10.304232804232804,3.9
Balen'se Kebap,51.1710139,5.1663912,10.31578947368421,4.0
Pitta Marmaris,50.7699036,3.8745797,10.328770053475935,3.7
Baskent Meerhout,51.1210878,5.0539219,10.33248730964467,4.9
Pizzeria Messina,50.9911804,4.4926872,10.335211267605635,4.6
Baskent Balen,51.1728415,5.1696578,10.338983050847459,4.1
Loons Qebap,50.8026021,5.3490397,10.349009900990099,3.7
Goody's,51.1852106,3.5627169,10.354910714285714,4.5
Antalya Kebab,51.1948087,4.7340181,10.362573099415204,4.5
Pizza Giorno,51.2526622,4.5033576,10.388064516129031,3.5
Best Kebab,51.232577,2.9159456,10.403409090909092,3.3
Pitta New York,51.0945939,4.143846,10.435617529880478,4.1
Nefertete,51.1869835,5.1173167,10.447872340425532,3.8
Pizza Mr. Food,51.1544825,3.2358945,10.449819494584837,4.3
Pizza Efe Berlaar,51.0828962,4.6687013,10.469047619047618,4.0
Pizza Monza,51.1787114,4.7414874,10.473248407643311,4.0
Pizza Delicia 3,51.0156658,4.201945,10.499723756906079,3.6
Milo II Kebap Pizza Pasta,51.2372439,5.113052,10.509615384615385,3.5
Anatolian Kebap,51.0673158,5.0911336,10.51025641025641,4.3
Nazar Pizza Kebap,51.0555709,4.6305208,10.526960784313726,3.9
Bella Rosa,51.1676609,4.4521842,10.543693693693692,4.3
Kebap Corner,50.978933,5.0567785,10.544262295081968,3.8
Plaza Snacks,51.0229785,5.3137589,10.545871559633028,4.9
Pizza Deliorman,50.8360373,4.3268519,10.576923076923077,0.0
Miam's Burger,50.8297152,4.3433057,10.59,3.4
Stela,51.1046623,5.0021347,10.605577689243027,3.3
Kebap Store,50.9799202,4.9708248,10.614068441064639,3.9
Pizza@Home,51.2916329,4.4938601,10.614356435643565,3.2
Sofram,51.0746271,5.2202015,10.633928571428571,4.2
Pizza La Vince,51.0992448,4.2342988,10.660569105691057,3.8
Kebab Oelegem,51.2132023,4.5908882,10.67431693989071,4.6
Dennis Kebap,51.0698019,5.0882976,10.680379746835444,2.9
Eethuis Troja,51.1788669,4.831852,10.683620689655172,4.3
Eethuis Van Gogh,51.1841675,4.4271969,10.688235294117648,3.2
My Kebab,50.9872387,5.40882,10.703482587064677,3.2
Grill House Centrum,50.9642271,5.4949196,10.707380952380952,4.1
Jerusalem,50.9664556,5.5000842,10.727586206896552,4.5
Eethuis Meyman,50.9426912,5.2861735,10.738095238095237,4.8
Eethuis Istanbul,51.0320949,4.8327207,10.739543726235741,4.2
Pizza Pisa,51.0643909,3.7264021,10.755421686746988,4.4
Pizzeria La Familia,51.17228,4.4470744,10.783695652173913,4.5
LindelBaskent,51.1953055,5.4032187,10.834285714285715,3.9
Milano Pizza Grill,50.9768089,4.6335843,10.835,4.3
Pizza De Hoek,51.071335,3.7306783,10.835658914728683,4.3
Pizza Efe Itegem,51.1032629,4.7276196,10.857317073170732,3.8
Orient KURINGEN,50.9415088,5.3007665,10.863036303630363,4.4
Pizza Pasta Locale,51.2233233,4.4369035,10.885430463576158,4.4
La Monte Carlo,51.2308451,4.4063067,10.89142857142857,4.2
Friterie Houba,50.8860058,4.3425412,10.90060606060606,3.4
Kent,51.183926,5.1148286,10.905027932960893,4.3
Pizza Bulls,51.0996057,4.2404586,10.91324200913242,4.2
Fansa,51.2187238,5.3134026,10.915254237288135,4.2
Pita Vogelmarkt,51.213503,4.4094513,10.919230769230769,0.0
Pyramide,51.24612,5.54582,10.922480620155039,4.9
Milo Kebap Pizza Pasta,51.1895375,5.0757013,10.931034482758621,3.8
Kebap Anatolia,51.3249431,4.9393244,10.938356164383562,3.9
Elite Kebab,51.1287558,4.5771098,10.941203703703705,4.0
Mister Pizza,50.992883,3.7468562,10.942105263157895,4.3
Huzur Pizzeria Kebab,51.1163805,5.2619274,10.94915254237288,4.6
De 3 Piramiden,50.7511681,5.0809082,10.950413223140496,3.6
Baskent Peer,51.1299453,5.4185639,10.95320197044335,4.2
Huzur Pizzeria Kebab,51.1618789,4.9908608,10.954391891891891,3.2
Saray Pizza & Kebab,51.1383619,4.9038049,10.958064516129033,3.3
Rinascente Eethuis,51.2202396,4.4594739,10.962666666666665,4.3
Grand Station,51.0967684,4.2329777,10.966569767441861,4.4
Kaya,50.920294,4.756737,10.969767441860466,4.6
Pizza kebap Pasa,51.0538633,4.883327,10.980392156862745,4.2
Pyramide grillroom pizza pita pasta,51.227605,4.5182991,11.012179487179488,4.1
Asmin,51.060475,3.7477763,11.014244186046513,4.3
Ramses II,51.394011,4.5962642,11.027027027027026,4.1
Pizza Pita House,51.175496,4.8243417,11.033457249070633,3.5
Pizza Istanbul,51.0956102,4.1426429,11.038545454545453,4.6
Pizza Boxx,51.204868,4.3961402,11.041618497109827,4.3
Orient,50.9249881,5.3259603,11.075,3.8
Centrum Kebap,50.9933773,5.3678495,11.075624999999999,3.4
De Echte Eethuis Carlos,51.0023083,4.8359204,11.081454545454545,5.0
Pizza Napoli,50.8418517,4.9459863,11.083333333333334,4.1
Eethuis Turnhout,51.319332,4.949775,11.0859375,4.0
De Pizzabakker,50.90793,4.51349,11.103896103896103,4.4
Saray,50.8006942,4.9563972,11.113026819923371,3.7
Urban pizza,51.0531394,3.7461081,11.124206349206348,3.7
Pizza Bodrum,51.069962,4.5316614,11.13953488372093,4.1
Pita Huis Blauwwater,51.2075136,4.4135132,11.14111111111111,4.4
Pasa,51.0332193,5.2812994,11.144628099173554,4.0
Pizza Sara,51.0912225,4.1360277,11.15,3.3
Il Viadotto,51.2329328,4.4240106,11.1503125,4.5
Populair,50.861949,5.6249084,11.153469387755102,4.1
Eethuis Yuksel,51.1615063,4.6694733,11.172039473684212,4.2
Pizzeria Grissini & Kebab House,51.0000089,4.5861227,11.177477477477478,4.4
Millenium Kebap,50.9835692,4.8312654,11.188808664259929,4.3
M&N Royal,51.0761247,4.7219067,11.202702702702704,4.1
Snack Unal,51.1866205,5.1177366,11.211627906976744,4.5
Eat-Point,50.7937035,5.2203537,11.229970326409495,4.0
Il Gusto Pizzeria,51.2203373,4.4026728,11.23663594470046,4.3
Pizza Town Houtem,50.9207779,3.8538031,11.240857142857143,4.6
Dr. Grill,51.252831,5.106028,11.243027888446216,4.4
Gold Pizza,51.2464296,4.4477511,11.243888888888888,4.5
Pizza La Famiglia,50.983724,4.461841,11.298319327731093,4.2
King Pizza Vilvoorde,50.929214,4.4269543,11.307738095238093,4.2
Het Paleis Eethuis,51.3200678,4.9751429,11.327519379844961,4.0
Pizza Pitta Flora,51.0193229,3.764036,11.337556561085972,4.3
Sezer Snack-Pizza,51.059011,3.7042263,11.362974683544305,4.4
Pizzeria Vosselaar,51.3148154,4.8895358,11.363636363636363,3.0
Pizza Yavuz,51.0522166,3.7485857,11.370681818181817,4.0
Napoli,51.1326409,4.335473,11.37925,4.0
Pizzeria Lina,51.1861375,4.3874416,11.391397849462365,3.9
Pizza Paleis Haasdonk,51.1798851,4.2334942,11.433967391304348,4.1
Unal Snacks,51.0031161,4.6327539,11.436363636363636,4.7
Ararat,50.8116006,5.1899666,11.44700460829493,4.1
Napoli Heers,50.752292,5.302248,11.459501557632398,3.5
Kebap Kursat,50.9787777,4.9792033,11.463333333333333,4.0
Marmara,51.2009456,3.8055828,11.473809523809525,3.2
Side Kebap,51.3187134,5.0863443,11.496478873239436,3.7
Pizza Napoli,50.8697286,3.6216024,11.510162601626016,3.9
Venezia,51.46431,4.45796,11.55722891566265,4.3
Lilse Kebab 2,51.2684622,4.8671555,11.57266435986159,4.0
Pitaverne Wilrijk,51.1717341,4.3877893,11.60253164556962,3.7
Pizza Star,51.1211835,4.1964177,11.607142857142858,4.3
Istanbul,51.1672968,5.1734859,11.60985401459854,4.8
Keyf Lounge,51.1401444,5.5835198,11.619083969465649,4.9
Loco Pizza 2,50.87404,4.7090521,11.620735785953178,2.9
Eethuis Botan,51.0526079,4.7287392,11.625448028673835,3.9
Efes,51.3109921,4.8870504,11.639004149377593,3.3
Cheff Kebab,51.1410312,4.8398966,11.640434782608695,3.9
Memo Pizza,50.9196292,3.8620404,11.652777777777779,3.9
Pitta & Pizza Izmir Eeklo,51.181997,3.5726984,11.667701863354038,4.7
Pizza Pasta Nr1,51.1342628,4.4520796,11.66955357142857,3.8
Alo Pizza,51.3342494,4.9634086,11.696516393442623,3.6
Pizzalijn Merksem,51.2387006,4.441577,11.70189075630252,3.1
Eethuis Bidos,50.8904648,5.653412,11.708860759493671,4.2
Lilse Kebap,51.2371943,4.8258901,11.731021897810217,3.9
Toscana,51.1586094,4.4913434,11.742931937172774,4.5
Pizza Royal,50.8917936,3.427323,11.748186528497408,3.8
Eethuis Hoekske,50.925994,5.3251184,11.753696498054476,4.1
De ster pizzeria & doner kebap,51.0905238,4.9161535,11.755494505494505,4.6
La Casa Pizzeria,51.1338131,4.4428021,11.783846153846154,4.2
Milas,51.1615201,5.3969554,11.795070422535211,4.9
Karine Dendermonde,51.0290797,4.0986522,11.810979228486646,3.9
Cannur Pizza Pasta Pitta BBQ,51.0058452,3.8886878,11.813266666666667,4.3
Boston Pizza & Burgers,50.8897114,4.5524114,11.814285714285715,4.2
Karine Grembergen,51.0448154,4.1055125,11.825882352941177,4.4
Indian tadka & Istanbul kebab,50.9896628,5.0502084,11.85016611295681,4.5
Pizza Yolo,50.8543099,2.8864992,11.857267441860465,4.7
Pizza Zaga,51.0702424,4.531321,11.880999999999998,4.3
Pizza Florence,51.135815,4.4435816,11.881564245810056,4.0
Huzur Pizzeria Kebab,51.1311405,5.4560267,11.893839835728953,4.3
Pizza Sultan Westmeerbeek,51.0607777,4.8365614,11.954135338345864,4.2
Anatolia Hoogstraten,51.3960999,4.75359,11.962745098039216,4.1
Melita,51.2142722,4.2572492,11.963524590163933,3.3
Munis Restaurant,51.0194736,4.4822218,11.971523178807947,3.9
Pitawan,51.0243125,4.4775937,11.972413793103449,3.9
Apollo Pizza,50.9100396,4.1993064,11.983798882681565,4.7
Pizza Florida,50.839714,3.47281,11.983947368421052,4.8
Forty Seven,50.9325605,5.4049223,11.989655172413793,3.8
Pizza Verona,51.2439049,4.5922835,12.01045918367347,3.1
Liman Grill House,50.998704,5.512514,12.034782608695652,4.6
Eethuis Orient,50.8228108,5.1759431,12.059766763848396,4.0
't Hoekske,51.2421,4.9658074,12.076576576576576,4.7
King Of Kebab,51.0534807,4.8821208,12.079545454545455,4.6
Baskent Nijlen,51.1652144,4.6819769,12.087349397590362,3.7
Eethuis Kodak,51.2259261,5.4302185,12.102222222222222,4.0
Mashar Pide,50.977367,5.489949,12.124378109452737,3.6
Adel Eethuis,51.3787817,4.4745592,12.12797619047619,3.1
Cesars,51.0567325,4.6288207,12.141954022988505,4.7
Pizza L'Esta,51.1792768,4.3553309,12.145188679245283,4.9
Pizza Point,51.1235066,4.8682401,12.194852941176471,4.3
Kebap Xpress,51.3219452,4.9401798,12.197309417040358,4.0
Venus,50.9995553,5.3320171,12.202020725388602,4.1
Ottoman Eethuis,50.8730912,5.5212681,12.23913043478261,4.1
Euro Pizza Grill,50.949074,4.57991,12.267857142857142,4.6
Pizza&Co,50.7805606,3.1251744,12.311068702290076,4.1
Antalya Pita,51.0217628,4.1140786,12.313770491803279,3.9
Ghoshto Eethuis,51.196373,4.443489,12.339839572192513,3.2
Pizza Corner,51.2561525,4.0899404,12.363636363636363,4.2
Pizza Sole Mio,50.878939,4.700268,12.3932,2.5
King Pizza & More,51.1595353,4.1439857,12.404773869346732,4.4
Napoli Schoten,51.2548016,4.5036859,12.487139689578713,4.4
Pizza Palace,51.145525,4.2987186,12.51010101010101,3.9
Mr. Ribs,51.3129515,4.4294497,12.515165562913907,3.6
Flamingo Pizza & Kebap,51.3557804,4.8650923,12.535388127853881,3.6
Boston Pizza,50.9672032,3.9770103,12.541975308641975,4.3
Pizza Deal,51.1643562,4.4998914,12.618663594470046,4.7
Pizzaworld,51.2082731,4.4492776,12.629807692307692,4.2
Pita Pyramide,50.8443904,3.6037331,12.665841584158416,4.0
Pinocchio,51.2508647,4.4479395,12.709070796460177,4.6
Pizza King,51.0651573,3.7264744,12.724390243902437,4.4
Mario's Pizza,51.2924252,4.4441251,12.727184466019416,3.9
Amon,51.1162628,5.2592204,12.747685185185185,3.8
Ottoman Pizza & BBQ,51.06103,3.6932049,12.793589743589743,4.4
Bella Vita,51.2788573,4.4188902,12.838034682080925,4.3
Kapadokya döner,51.229379,5.3068659,12.84468085106383,4.1
Pizza Pasta Nr1 City,51.2068362,4.3928489,12.869747899159664,4.2
M84U,50.8068626,5.0969517,12.889035087719298,4.5
Pitza Service Beveren,51.2112126,4.252266,12.897187500000001,3.5
Restaurant Marmaris,51.1700383,4.3873492,13.036082474226804,4.1
Pizza Trenti,51.2536044,4.5023549,13.037654320987654,4.4
Pizzeria Pompeji,51.1975082,4.4527734,13.057142857142857,3.8
Merdin 2,50.9407756,4.7316923,13.072727272727272,4.5
Pizza Delicia,51.0014269,4.3023356,13.078787878787878,3.9
Call Pizza,51.0416276,4.5157261,13.18599033816425,4.3
Pizza Trenti,51.1379308,4.3783788,13.210628019323671,4.3
Pizza Meet Point,51.0952496,4.5029904,13.259760956175299,3.9
Vero Napoli,51.1320362,4.4468262,13.287244897959184,4.0
Pizza Roma,50.8508582,2.8868742,13.2982683982684,2.6
4 Seizoenen,51.293016,4.4945229,13.344696969696969,4.7
De Fontein,51.2191013,4.1945366,13.401895734597158,4.4
Pizza Vali,51.2268688,4.5187634,13.413468634686348,4.3
Kaai Pizzeria,51.1336097,2.7538643,13.503246753246753,2.9
Eethuis Orient,51.0388933,5.2991728,13.58974358974359,4.2
Pizza Roma Mechelen,51.03616,4.475636,13.908376963350785,3.4
La Rosa,51.1393449,4.6095,13.9405,3.9
Eethuis Tuba,51.1310196,4.3893394,14.019337016574585,4.3
Pizzaria Vlam II,51.3706301,4.9941559,14.1348,4.6
Herentals Kebab,51.1745451,4.838171,14.251807228915663,4.4
La Rosa,51.1819222,4.6016273,14.438912133891213,4.0
The Black Horse,51.0758523,4.7251002,14.686666666666667,4.9
Kebap Oasis,51.0973895,4.9451813,14.73818181818182,4.1
Pizza Taliano,50.8154097,3.3179776,14.814197530864197,4.6
Qubbe Lounge,50.9796424,5.4915451,15.107142857142858,4.8
De Waterput,51.33266,4.9590822,15.291203703703705,3.9
Valento Pizzeria,51.1402858,4.3375162,15.817,4.4
Pizzeria Valentino,51.1246762,4.495271,16.543788819875775,3.9
